Time,header.seq,header.stamp.secs,header.stamp.nsecs,header.frame_id,brake_torque_request,brake_torque_actual,wheel_torque_actual,accel_over_ground,hsa.status,hsa.mode,abs_active,abs_enabled,stab_active,stab_enabled,trac_active,trac_enabled,parking_brake.status,stationary
1479424214.7835288,279155,1479424214,783311269,,0.0,0.0,620.0,0.07000000029802322,0,1,False,True,False,True,False,True,0,False
1479424214.8034875,279156,1479424214,803405172,,0.0,0.0,608.0,0.07000000029802322,0,1,False,True,False,True,False,True,0,False
1479424214.8233058,279157,1479424214,823195526,,0.0,0.0,612.0,0.10499999672174454,0,1,False,True,False,True,False,True,0,False
1479424214.8432674,279158,1479424214,843154239,,0.0,0.0,616.0,0.10499999672174454,0,1,False,True,False,True,False,True,0,False
1479424214.8632753,279159,1479424214,863176752,,0.0,0.0,620.0,0.10499999672174454,0,1,False,True,False,True,False,True,0,False
1479424214.883224,279160,1479424214,883150492,,0.0,0.0,616.0,0.10499999672174454,0,1,False,True,False,True,False,True,0,False
1479424214.9032936,279161,1479424214,903172217,,0.0,0.0,616.0,0.10499999672174454,0,1,False,True,False,True,False,True,0,False
1479424214.9232411,279162,1479424214,923172164,,0.0,0.0,628.0,0.10499999672174454,0,1,False,True,False,True,False,True,0,False
1479424214.9432254,279163,1479424214,943154005,,0.0,0.0,620.0,0.10499999672174454,0,1,False,True,False,True,False,True,0,False
1479424214.9632397,279164,1479424214,963172394,,0.0,0.0,624.0,0.10499999672174454,0,1,False,True,False,True,False,True,0,False
1479424214.9832006,279165,1479424214,983132222,,0.0,0.0,620.0,0.10499999672174454,0,1,False,True,False,True,False,True,0,False
1479424215.0032701,279166,1479424215,3192941,,0.0,0.0,628.0,0.10499999672174454,0,1,False,True,False,True,False,True,0,False
1479424215.023262,279167,1479424215,23191670,,0.0,0.0,620.0,0.07000000029802322,0,1,False,True,False,True,False,True,0,False
1479424215.0432658,279168,1479424215,43192002,,0.0,0.0,624.0,0.07000000029802322,0,1,False,True,False,True,False,True,0,False
1479424215.0632153,279169,1479424215,63148927,,0.0,0.0,624.0,0.07000000029802322,0,1,False,True,False,True,False,True,0,False
1479424215.083276,279170,1479424215,83161619,,0.0,0.0,628.0,0.10499999672174454,0,1,False,True,False,True,False,True,0,False
1479424215.1034243,279171,1479424215,103182484,,0.0,0.0,624.0,0.07000000029802322,0,1,False,True,False,True,False,True,0,False
1479424215.1236007,279172,1479424215,123223157,,0.0,0.0,612.0,0.03500000014901161,0,1,False,True,False,True,False,True,0,False
1479424215.1435933,279173,1479424215,143205875,,0.0,0.0,608.0,0.07000000029802322,0,1,False,True,False,True,False,True,0,False
1479424215.1634092,279174,1479424215,163188413,,0.0,0.0,600.0,0.10499999672174454,0,1,False,True,False,True,False,True,0,False
1479424215.1834238,279175,1479424215,183192040,,0.0,0.0,604.0,0.10499999672174454,0,1,False,True,False,True,False,True,0,False
1479424215.2034197,279176,1479424215,203191540,,0.0,0.0,588.0,0.10499999672174454,0,1,False,True,False,True,False,True,0,False
1479424215.2234104,279177,1479424215,223193892,,0.0,0.0,592.0,0.10499999672174454,0,1,False,True,False,True,False,True,0,False
1479424215.2434993,279178,1479424215,243217957,,0.0,0.0,596.0,0.10499999672174454,0,1,False,True,False,True,False,True,0,False
1479424215.263563,279179,1479424215,263230418,,0.0,0.0,600.0,0.10499999672174454,0,1,False,True,False,True,False,True,0,False
1479424215.2835348,279180,1479424215,283255101,,0.0,0.0,592.0,0.10499999672174454,0,1,False,True,False,True,False,True,0,False
1479424215.3035324,279181,1479424215,303226448,,0.0,0.0,596.0,0.10499999672174454,0,1,False,True,False,True,False,True,0,False
1479424215.3235025,279182,1479424215,323273874,,0.0,0.0,604.0,0.10499999672174454,0,1,False,True,False,True,False,True,0,False
1479424215.3434057,279183,1479424215,343215084,,0.0,0.0,600.0,0.10499999672174454,0,1,False,True,False,True,False,True,0,False
1479424215.3634405,279184,1479424215,363203451,,0.0,0.0,600.0,0.10499999672174454,0,1,False,True,False,True,False,True,0,False
1479424215.3833864,279185,1479424215,383204482,,0.0,0.0,596.0,0.10499999672174454,0,1,False,True,False,True,False,True,0,False
1479424215.4035463,279186,1479424215,403321727,,0.0,0.0,596.0,0.10499999672174454,0,1,False,True,False,True,False,True,0,False
1479424215.423519,279187,1479424215,423297241,,0.0,0.0,588.0,0.10499999672174454,0,1,False,True,False,True,False,True,0,False
1479424215.4435456,279188,1479424215,443364070,,0.0,0.0,596.0,0.10499999672174454,0,1,False,True,False,True,False,True,0,False
1479424215.463559,279189,1479424215,463371141,,0.0,0.0,596.0,0.10499999672174454,0,1,False,True,False,True,False,True,0,False
1479424215.4834554,279190,1479424215,483203094,,0.0,0.0,604.0,0.10499999672174454,0,1,False,True,False,True,False,True,0,False
1479424215.503397,279191,1479424215,503208243,,0.0,0.0,608.0,0.07000000029802322,0,1,False,True,False,True,False,True,0,False
1479424215.5235293,279192,1479424215,523293722,,0.0,0.0,604.0,0.07000000029802322,0,1,False,True,False,True,False,True,0,False
1479424215.5436583,279193,1479424215,543419140,,0.0,0.0,596.0,0.07000000029802322,0,1,False,True,False,True,False,True,0,False
1479424215.5636053,279194,1479424215,563407307,,0.0,0.0,596.0,0.07000000029802322,0,1,False,True,False,True,False,True,0,False
1479424215.5836153,279195,1479424215,583395679,,0.0,0.0,596.0,0.07000000029802322,0,1,False,True,False,True,False,True,0,False
1479424215.603399,279196,1479424215,603202551,,0.0,0.0,584.0,0.07000000029802322,0,1,False,True,False,True,False,True,0,False
1479424215.6234193,279197,1479424215,623192554,,0.0,0.0,580.0,0.07000000029802322,0,1,False,True,False,True,False,True,0,False
1479424215.6434238,279198,1479424215,643208124,,0.0,0.0,568.0,0.07000000029802322,0,1,False,True,False,True,False,True,0,False
1479424215.6634614,279199,1479424215,663229408,,0.0,0.0,568.0,0.07000000029802322,0,1,False,True,False,True,False,True,0,False
1479424215.6833973,279200,1479424215,683190784,,0.0,0.0,564.0,0.07000000029802322,0,1,False,True,False,True,False,True,0,False
1479424215.703461,279201,1479424215,703242580,,0.0,0.0,572.0,0.07000000029802322,0,1,False,True,False,True,False,True,0,False
1479424215.723414,279202,1479424215,723203231,,0.0,0.0,576.0,0.03500000014901161,0,1,False,True,False,True,False,True,0,False
1479424215.7434287,279203,1479424215,743207098,,0.0,0.0,580.0,0.03500000014901161,0,1,False,True,False,True,False,True,0,False
1479424215.763463,279204,1479424215,763206238,,0.0,0.0,572.0,0.03500000014901161,0,1,False,True,False,True,False,True,0,False
1479424215.7834568,279205,1479424215,783229376,,0.0,0.0,568.0,0.03500000014901161,0,1,False,True,False,True,False,True,0,False
1479424215.8034322,279206,1479424215,803226661,,0.0,0.0,572.0,0.03500000014901161,0,1,False,True,False,True,False,True,0,False
1479424215.8234837,279207,1479424215,823227119,,0.0,0.0,564.0,0.03500000014901161,0,1,False,True,False,True,False,True,0,False
1479424215.8433976,279208,1479424215,843216476,,0.0,0.0,564.0,0.03500000014901161,0,1,False,True,False,True,False,True,0,False
1479424215.8634324,279209,1479424215,863205260,,0.0,0.0,564.0,0.03500000014901161,0,1,False,True,False,True,False,True,0,False
1479424215.88337,279210,1479424215,883189617,,0.0,0.0,568.0,0.03500000014901161,0,1,False,True,False,True,False,True,0,False
1479424215.9034045,279211,1479424215,903203142,,0.0,0.0,564.0,0.03500000014901161,0,1,False,True,False,True,False,True,0,False
1479424215.923425,279212,1479424215,923208014,,0.0,0.0,576.0,0.0,0,1,False,True,False,True,False,True,0,False
1479424215.943573,279213,1479424215,943375174,,0.0,0.0,580.0,0.0,0,1,False,True,False,True,False,True,0,False
1479424215.96334,279214,1479424215,963184557,,0.0,0.0,580.0,0.0,0,1,False,True,False,True,False,True,0,False
1479424215.9833925,279215,1479424215,983209663,,0.0,0.0,572.0,0.03500000014901161,0,1,False,True,False,True,False,True,0,False
1479424216.0034614,279216,1479424216,3199521,,0.0,0.0,572.0,0.03500000014901161,0,1,False,True,False,True,False,True,0,False
1479424216.0234182,279217,1479424216,23207178,,0.0,0.0,568.0,0.03500000014901161,0,1,False,True,False,True,False,True,0,False
1479424216.0435603,279218,1479424216,43396960,,0.0,0.0,568.0,0.03500000014901161,0,1,False,True,False,True,False,True,0,False
1479424216.063368,279219,1479424216,63201597,,0.0,0.0,568.0,0.03500000014901161,0,1,False,True,False,True,False,True,0,False
1479424216.0833783,279220,1479424216,83196132,,0.0,0.0,556.0,0.03500000014901161,0,1,False,True,False,True,False,True,0,False
1479424216.1033266,279221,1479424216,103157846,,0.0,0.0,560.0,0.03500000014901161,0,1,False,True,False,True,False,True,0,False
1479424216.1233788,279222,1479424216,123186681,,0.0,0.0,568.0,0.03500000014901161,0,1,False,True,False,True,False,True,0,False
1479424216.143521,279223,1479424216,143396241,,0.0,0.0,572.0,0.03500000014901161,0,1,False,True,False,True,False,True,0,False
1479424216.1633573,279224,1479424216,163211151,,0.0,0.0,568.0,0.03500000014901161,0,1,False,True,False,True,False,True,0,False
1479424216.1833353,279225,1479424216,183213191,,0.0,0.0,568.0,0.03500000014901161,0,1,False,True,False,True,False,True,0,False
1479424216.203375,279226,1479424216,203224894,,0.0,0.0,576.0,0.03500000014901161,0,1,False,True,False,True,False,True,0,False
1479424216.2271838,279227,1479424216,227006263,,0.0,0.0,584.0,0.03500000014901161,0,1,False,True,False,True,False,True,0,False
1479424216.24355,279228,1479424216,243392699,,0.0,0.0,596.0,0.03500000014901161,0,1,False,True,False,True,False,True,0,False
1479424216.2635157,279229,1479424216,263339836,,0.0,0.0,592.0,0.03500000014901161,0,1,False,True,False,True,False,True,0,False
1479424216.283481,279230,1479424216,283348664,,0.0,0.0,600.0,0.03500000014901161,0,1,False,True,False,True,False,True,0,False
1479424216.3035204,279231,1479424216,303392402,,0.0,0.0,592.0,0.03500000014901161,0,1,False,True,False,True,False,True,0,False
1479424216.3235502,279232,1479424216,323390988,,0.0,0.0,608.0,0.03500000014901161,0,1,False,True,False,True,False,True,0,False
1479424216.343782,279233,1479424216,343644775,,0.0,0.0,608.0,0.03500000014901161,0,1,False,True,False,True,False,True,0,False
1479424216.363377,279234,1479424216,363200404,,0.0,0.0,608.0,0.07000000029802322,0,1,False,True,False,True,False,True,0,False
1479424216.3833947,279235,1479424216,383228726,,0.0,0.0,604.0,0.07000000029802322,0,1,False,True,False,True,False,True,0,False
1479424216.403369,279236,1479424216,403218732,,0.0,0.0,608.0,0.10499999672174454,0,1,False,True,False,True,False,True,0,False
1479424216.423504,279237,1479424216,423204175,,0.0,0.0,612.0,0.10499999672174454,0,1,False,True,False,True,False,True,0,False
1479424216.4433246,279238,1479424216,443190707,,0.0,0.0,612.0,0.10499999672174454,0,1,False,True,False,True,False,True,0,False
1479424216.4633355,279239,1479424216,463190376,,0.0,0.0,624.0,0.10499999672174454,0,1,False,True,False,True,False,True,0,False
1479424216.4833908,279240,1479424216,483203707,,0.0,0.0,636.0,0.10499999672174454,0,1,False,True,False,True,False,True,0,False
1479424216.5033345,279241,1479424216,503185692,,0.0,0.0,652.0,0.14000000059604645,0,1,False,True,False,True,False,True,0,False
1479424216.5233836,279242,1479424216,523183873,,0.0,0.0,656.0,0.14000000059604645,0,1,False,True,False,True,False,True,0,False
1479424216.5433779,279243,1479424216,543235942,,0.0,0.0,660.0,0.10499999672174454,0,1,False,True,False,True,False,True,0,False
1479424216.5634336,279244,1479424216,563245599,,0.0,0.0,656.0,0.10499999672174454,0,1,False,True,False,True,False,True,0,False
1479424216.5833595,279245,1479424216,583204281,,0.0,0.0,652.0,0.10499999672174454,0,1,False,True,False,True,False,True,0,False
1479424216.6033988,279246,1479424216,603237879,,0.0,0.0,640.0,0.14000000059604645,0,1,False,True,False,True,False,True,0,False
1479424216.6233916,279247,1479424216,623201809,,0.0,0.0,632.0,0.14000000059604645,0,1,False,True,False,True,False,True,0,False
1479424216.6433587,279248,1479424216,643200264,,0.0,0.0,628.0,0.14000000059604645,0,1,False,True,False,True,False,True,0,False
1479424216.6634085,279249,1479424216,663237414,,0.0,0.0,628.0,0.14000000059604645,0,1,False,True,False,True,False,True,0,False
1479424216.683348,279250,1479424216,683189170,,0.0,0.0,636.0,0.14000000059604645,0,1,False,True,False,True,False,True,0,False
1479424216.7033932,279251,1479424216,703232658,,0.0,0.0,644.0,0.14000000059604645,0,1,False,True,False,True,False,True,0,False
1479424216.723354,279252,1479424216,723193526,,0.0,0.0,656.0,0.10499999672174454,0,1,False,True,False,True,False,True,0,False
1479424216.7433891,279253,1479424216,743226805,,0.0,0.0,660.0,0.03500000014901161,0,1,False,True,False,True,False,True,0,False
1479424216.7633178,279254,1479424216,763186119,,0.0,0.0,652.0,0.03500000014901161,0,1,False,True,False,True,False,True,0,False
1479424216.7833908,279255,1479424216,783210514,,0.0,0.0,644.0,0.10499999672174454,0,1,False,True,False,True,False,True,0,False
1479424216.8033772,279256,1479424216,803200097,,0.0,0.0,632.0,0.10499999672174454,0,1,False,True,False,True,False,True,0,False
1479424216.8233757,279257,1479424216,823203046,,0.0,0.0,616.0,0.10499999672174454,0,1,False,True,False,True,False,True,0,False
1479424216.8434532,279258,1479424216,843250631,,0.0,0.0,612.0,0.10499999672174454,0,1,False,True,False,True,False,True,0,False
1479424216.8633814,279259,1479424216,863203102,,0.0,0.0,612.0,0.10499999672174454,0,1,False,True,False,True,False,True,0,False
1479424216.8833556,279260,1479424216,883204580,,0.0,0.0,612.0,0.10499999672174454,0,1,False,True,False,True,False,True,0,False
1479424216.9033966,279261,1479424216,903247143,,0.0,0.0,608.0,0.10499999672174454,0,1,False,True,False,True,False,True,0,False
1479424216.9271777,279262,1479424216,923237419,,0.0,0.0,608.0,0.10499999672174454,0,1,False,True,False,True,False,True,0,False
1479424216.9433665,279263,1479424216,943202931,,0.0,0.0,612.0,0.10499999672174454,0,1,False,True,False,True,False,True,0,False
1479424216.9634168,279264,1479424216,963235301,,0.0,0.0,624.0,0.10499999672174454,0,1,False,True,False,True,False,True,0,False
1479424216.9834387,279265,1479424216,983190951,,0.0,0.0,620.0,0.10499999672174454,0,1,False,True,False,True,False,True,0,False
1479424217.003398,279266,1479424217,3201662,,0.0,0.0,620.0,0.10499999672174454,0,1,False,True,False,True,False,True,0,False
1479424217.023416,279267,1479424217,23238058,,0.0,0.0,616.0,0.10499999672174454,0,1,False,True,False,True,False,True,0,False
1479424217.0433962,279268,1479424217,43234029,,0.0,0.0,616.0,0.10499999672174454,0,1,False,True,False,True,False,True,0,False
1479424217.0634265,279269,1479424217,63206375,,0.0,0.0,624.0,0.10499999672174454,0,1,False,True,False,True,False,True,0,False
1479424217.085029,279270,1479424217,83188725,,0.0,0.0,616.0,0.07000000029802322,0,1,False,True,False,True,False,True,0,False
1479424217.1034584,279271,1479424217,103202544,,0.0,0.0,608.0,0.07000000029802322,0,1,False,True,False,True,False,True,0,False
1479424217.123363,279272,1479424217,123199716,,0.0,0.0,600.0,0.07000000029802322,0,1,False,True,False,True,False,True,0,False
1479424217.143395,279273,1479424217,143240572,,0.0,0.0,600.0,0.10499999672174454,0,1,False,True,False,True,False,True,0,False
1479424217.163379,279274,1479424217,163211465,,0.0,0.0,592.0,0.10499999672174454,0,1,False,True,False,True,False,True,0,False
1479424217.1834633,279275,1479424217,183265660,,0.0,0.0,588.0,0.10499999672174454,0,1,False,True,False,True,False,True,0,False
1479424217.2034597,279276,1479424217,203263822,,0.0,0.0,580.0,0.10499999672174454,0,1,False,True,False,True,False,True,0,False
1479424217.2271876,279277,1479424217,223240867,,0.0,0.0,572.0,0.14000000059604645,0,1,False,True,False,True,False,True,0,False
1479424217.2435045,279278,1479424217,243340525,,0.0,0.0,568.0,0.14000000059604645,0,1,False,True,False,True,False,True,0,False
1479424217.2635953,279279,1479424217,263410300,,0.0,0.0,564.0,0.14000000059604645,0,1,False,True,False,True,False,True,0,False
1479424217.2834368,279280,1479424217,283238037,,0.0,0.0,556.0,0.14000000059604645,0,1,False,True,False,True,False,True,0,False
1479424217.3034852,279281,1479424217,303342463,,0.0,0.0,548.0,0.10499999672174454,0,1,False,True,False,True,False,True,0,False
1479424217.3234076,279282,1479424217,323245603,,0.0,0.0,552.0,0.10499999672174454,0,1,False,True,False,True,False,True,0,False
1479424217.3435366,279283,1479424217,343279108,,0.0,0.0,552.0,0.10499999672174454,0,1,False,True,False,True,False,True,0,False
1479424217.3633707,279284,1479424217,363202106,,0.0,0.0,540.0,0.07000000029802322,0,1,False,True,False,True,False,True,0,False
1479424217.3834052,279285,1479424217,383241581,,0.0,0.0,540.0,0.03500000014901161,0,1,False,True,False,True,False,True,0,False
1479424217.4034078,279286,1479424217,403249117,,0.0,0.0,536.0,0.03500000014901161,0,1,False,True,False,True,False,True,0,False
1479424217.423472,279287,1479424217,423258580,,0.0,0.0,532.0,0.03500000014901161,0,1,False,True,False,True,False,True,0,False
1479424217.4434052,279288,1479424217,443200634,,0.0,0.0,524.0,0.03500000014901161,0,1,False,True,False,True,False,True,0,False
1479424217.4633582,279289,1479424217,463200897,,0.0,0.0,516.0,0.0,0,1,False,True,False,True,False,True,0,False
1479424217.4833648,279290,1479424217,483199067,,0.0,0.0,512.0,0.0,0,1,False,True,False,True,False,True,0,False
1479424217.5034387,279291,1479424217,503235113,,0.0,0.0,520.0,0.0,0,1,False,True,False,True,False,True,0,False
1479424217.5234334,279292,1479424217,523263276,,0.0,0.0,516.0,0.0,0,1,False,True,False,True,False,True,0,False
1479424217.5434182,279293,1479424217,543254910,,0.0,0.0,516.0,0.0,0,1,False,True,False,True,False,True,0,False
1479424217.5633998,279294,1479424217,563238122,,0.0,0.0,508.0,-0.03500000014901161,0,1,False,True,False,True,False,True,0,False
1479424217.5834036,279295,1479424217,583239329,,0.0,0.0,504.0,-0.03500000014901161,0,1,False,True,False,True,False,True,0,False
1479424217.6034365,279296,1479424217,603243966,,0.0,0.0,500.0,-0.03500000014901161,0,1,False,True,False,True,False,True,0,False
1479424217.6234007,279297,1479424217,623263477,,0.0,0.0,492.0,-0.03500000014901161,0,1,False,True,False,True,False,True,0,False
1479424217.6434574,279298,1479424217,643270218,,0.0,0.0,488.0,-0.03500000014901161,0,1,False,True,False,True,False,True,0,False
1479424217.6634512,279299,1479424217,663283864,,0.0,0.0,484.0,-0.03500000014901161,0,1,False,True,False,True,False,True,0,False
1479424217.6834376,279300,1479424217,683265910,,0.0,0.0,488.0,-0.03500000014901161,0,1,False,True,False,True,False,True,0,False
1479424217.7033663,279301,1479424217,703234240,,0.0,0.0,488.0,-0.03500000014901161,0,1,False,True,False,True,False,True,0,False
1479424217.727169,279302,1479424217,723240981,,0.0,0.0,496.0,-0.07000000029802322,0,1,False,True,False,True,False,True,0,False
1479424217.7434704,279303,1479424217,743248533,,0.0,0.0,500.0,-0.10499999672174454,0,1,False,True,False,True,False,True,0,False
1479424217.7634163,279304,1479424217,763239941,,0.0,0.0,504.0,-0.10499999672174454,0,1,False,True,False,True,False,True,0,False
1479424217.783426,279305,1479424217,783263712,,0.0,0.0,496.0,-0.07000000029802322,0,1,False,True,False,True,False,True,0,False
1479424217.8033934,279306,1479424217,803243513,,0.0,0.0,484.0,-0.07000000029802322,0,1,False,True,False,True,False,True,0,False
1479424217.823464,279307,1479424217,823201261,,0.0,0.0,480.0,-0.07000000029802322,0,1,False,True,False,True,False,True,0,False
1479424217.8434994,279308,1479424217,843256757,,0.0,0.0,472.0,-0.07000000029802322,0,1,False,True,False,True,False,True,0,False
1479424217.8634267,279309,1479424217,863248867,,0.0,0.0,464.0,-0.03500000014901161,0,1,False,True,False,True,False,True,0,False
1479424217.883383,279310,1479424217,883236407,,0.0,0.0,464.0,-0.03500000014901161,0,1,False,True,False,True,False,True,0,False
1479424217.9033918,279311,1479424217,903248331,,0.0,0.0,468.0,-0.03500000014901161,0,1,False,True,False,True,False,True,0,False
1479424217.9256568,279312,1479424217,923238124,,0.0,0.0,476.0,-0.03500000014901161,0,1,False,True,False,True,False,True,0,False
1479424217.943448,279313,1479424217,943266230,,0.0,0.0,488.0,-0.03500000014901161,0,1,False,True,False,True,False,True,0,False
1479424217.9634037,279314,1479424217,963245878,,0.0,0.0,496.0,-0.03500000014901161,0,1,False,True,False,True,False,True,0,False
1479424217.985385,279315,1479424217,983259650,,0.0,0.0,496.0,-0.03500000014901161,0,1,False,True,False,True,False,True,0,False
1479424218.0034668,279316,1479424218,3271778,,0.0,0.0,492.0,-0.07000000029802322,0,1,False,True,False,True,False,True,0,False
1479424218.0234036,279317,1479424218,23234706,,0.0,0.0,488.0,-0.07000000029802322,0,1,False,True,False,True,False,True,0,False
1479424218.0434024,279318,1479424218,43237398,,0.0,0.0,488.0,-0.07000000029802322,0,1,False,True,False,True,False,True,0,False
1479424218.063379,279319,1479424218,63234807,,0.0,0.0,484.0,-0.07000000029802322,0,1,False,True,False,True,False,True,0,False
1479424218.0834045,279320,1479424218,83238494,,0.0,0.0,480.0,-0.07000000029802322,0,1,False,True,False,True,False,True,0,False
1479424218.1034193,279321,1479424218,103247096,,0.0,0.0,480.0,-0.07000000029802322,0,1,False,True,False,True,False,True,0,False
1479424218.1234114,279322,1479424218,123235505,,0.0,0.0,472.0,-0.07000000029802322,0,1,False,True,False,True,False,True,0,False
1479424218.1434815,279323,1479424218,143266970,,0.0,0.0,468.0,-0.03500000014901161,0,1,False,True,False,True,False,True,0,False
1479424218.1633813,279324,1479424218,163200564,,0.0,0.0,468.0,-0.03500000014901161,0,1,False,True,False,True,False,True,0,False
1479424218.1834717,279325,1479424218,183261088,,0.0,0.0,472.0,-0.03500000014901161,0,1,False,True,False,True,False,True,0,False
1479424218.203424,279326,1479424218,203230247,,0.0,0.0,468.0,-0.03500000014901161,0,1,False,True,False,True,False,True,0,False
1479424218.2233825,279327,1479424218,223235590,,0.0,0.0,468.0,-0.03500000014901161,0,1,False,True,False,True,False,True,0,False
1479424218.2434695,279328,1479424218,243281497,,0.0,0.0,468.0,-0.03500000014901161,0,1,False,True,False,True,False,True,0,False
1479424218.263382,279329,1479424218,263236328,,0.0,0.0,464.0,-0.03500000014901161,0,1,False,True,False,True,False,True,0,False
1479424218.2834122,279330,1479424218,283236377,,0.0,0.0,464.0,-0.03500000014901161,0,1,False,True,False,True,False,True,0,False
1479424218.3034384,279331,1479424218,303282200,,0.0,0.0,464.0,-0.03500000014901161,0,1,False,True,False,True,False,True,0,False
1479424218.3233976,279332,1479424218,323235483,,0.0,0.0,472.0,-0.03500000014901161,0,1,False,True,False,True,False,True,0,False
1479424218.343419,279333,1479424218,343260262,,0.0,0.0,484.0,-0.03500000014901161,0,1,False,True,False,True,False,True,0,False
1479424218.363411,279334,1479424218,363235673,,0.0,0.0,488.0,-0.07000000029802322,0,1,False,True,False,True,False,True,0,False
1479424218.3833752,279335,1479424218,383204538,,0.0,0.0,496.0,-0.07000000029802322,0,1,False,True,False,True,False,True,0,False
1479424218.4033973,279336,1479424218,403243993,,0.0,0.0,512.0,-0.07000000029802322,0,1,False,True,False,True,False,True,0,False
1479424218.4234521,279337,1479424218,423247365,,0.0,0.0,528.0,-0.07000000029802322,0,1,False,True,False,True,False,True,0,False
1479424218.4434593,279338,1479424218,443260274,,0.0,0.0,536.0,-0.07000000029802322,0,1,False,True,False,True,False,True,0,False
1479424218.4633994,279339,1479424218,463237287,,0.0,0.0,552.0,-0.07000000029802322,0,1,False,True,False,True,False,True,0,False
1479424218.4834383,279340,1479424218,483246669,,0.0,0.0,564.0,-0.07000000029802322,0,1,False,True,False,True,False,True,0,False
1479424218.5034254,279341,1479424218,503234348,,0.0,0.0,568.0,-0.03500000014901161,0,1,False,True,False,True,False,True,0,False
1479424218.5233881,279342,1479424218,523237814,,0.0,0.0,572.0,-0.03500000014901161,0,1,False,True,False,True,False,True,0,False
1479424218.5434318,279343,1479424218,543261076,,0.0,0.0,572.0,-0.03500000014901161,0,1,False,True,False,True,False,True,0,False
1479424218.5633717,279344,1479424218,563234965,,0.0,0.0,576.0,-0.03500000014901161,0,1,False,True,False,True,False,True,0,False
1479424218.5835013,279345,1479424218,583314849,,0.0,0.0,580.0,-0.03500000014901161,0,1,False,True,False,True,False,True,0,False
1479424218.6034214,279346,1479424218,603240932,,0.0,0.0,580.0,0.0,0,1,False,True,False,True,False,True,0,False
1479424218.6233852,279347,1479424218,623236236,,0.0,0.0,584.0,0.0,0,1,False,True,False,True,False,True,0,False
1479424218.6433208,279348,1479424218,643187564,,0.0,0.0,588.0,0.0,0,1,False,True,False,True,False,True,0,False
1479424218.663384,279349,1479424218,663235792,,0.0,0.0,592.0,0.0,0,1,False,True,False,True,False,True,0,False
1479424218.6851506,279350,1479424218,683239432,,0.0,0.0,588.0,0.0,0,1,False,True,False,True,False,True,0,False
1479424218.703466,279351,1479424218,703279449,,0.0,0.0,592.0,0.0,0,1,False,True,False,True,False,True,0,False
1479424218.7233715,279352,1479424218,723223613,,0.0,0.0,596.0,0.0,0,1,False,True,False,True,False,True,0,False
1479424218.74341,279353,1479424218,743224470,,0.0,0.0,612.0,0.0,0,1,False,True,False,True,False,True,0,False
1479424218.7633984,279354,1479424218,763268902,,0.0,0.0,616.0,0.0,0,1,False,True,False,True,False,True,0,False
1479424218.7834163,279355,1479424218,783261735,,0.0,0.0,612.0,0.0,0,1,False,True,False,True,False,True,0,False
1479424218.80344,279356,1479424218,803234440,,0.0,0.0,612.0,0.0,0,1,False,True,False,True,False,True,0,False
1479424218.8234687,279357,1479424218,823286465,,0.0,0.0,612.0,0.0,0,1,False,True,False,True,False,True,0,False
1479424218.843431,279358,1479424218,843263922,,0.0,0.0,604.0,0.0,0,1,False,True,False,True,False,True,0,False
1479424218.863388,279359,1479424218,863244845,,0.0,0.0,588.0,0.0,0,1,False,True,False,True,False,True,0,False
1479424218.8834236,279360,1479424218,883261689,,0.0,0.0,584.0,0.0,0,1,False,True,False,True,False,True,0,False
1479424218.9033856,279361,1479424218,903235070,,0.0,0.0,580.0,0.0,0,1,False,True,False,True,False,True,0,False
1479424218.9233954,279362,1479424218,923242232,,0.0,0.0,584.0,0.03500000014901161,0,1,False,True,False,True,False,True,0,False
1479424218.9434643,279363,1479424218,943291478,,0.0,0.0,588.0,0.03500000014901161,0,1,False,True,False,True,False,True,0,False
1479424218.9633925,279364,1479424218,963265358,,0.0,0.0,592.0,0.03500000014901161,0,1,False,True,False,True,False,True,0,False
1479424218.983409,279365,1479424218,983225922,,0.0,0.0,592.0,0.03500000014901161,0,1,False,True,False,True,False,True,0,False
1479424219.0034637,279366,1479424219,3304845,,0.0,0.0,592.0,0.03500000014901161,0,1,False,True,False,True,False,True,0,False
1479424219.023353,279367,1479424219,23233992,,0.0,0.0,592.0,0.03500000014901161,0,1,False,True,False,True,False,True,0,False
1479424219.0434368,279368,1479424219,43295255,,0.0,0.0,592.0,0.07000000029802322,0,1,False,True,False,True,False,True,0,False
1479424219.0633554,279369,1479424219,63222712,,0.0,0.0,592.0,0.10499999672174454,0,1,False,True,False,True,False,True,0,False
1479424219.0833905,279370,1479424219,83237670,,0.0,0.0,584.0,0.10499999672174454,0,1,False,True,False,True,False,True,0,False
1479424219.1034493,279371,1479424219,103234374,,0.0,0.0,584.0,0.10499999672174454,0,1,False,True,False,True,False,True,0,False
1479424219.1233778,279372,1479424219,123249290,,0.0,0.0,584.0,0.10499999672174454,0,1,False,True,False,True,False,True,0,False
1479424219.1433544,279373,1479424219,143233901,,0.0,0.0,588.0,0.10499999672174454,0,1,False,True,False,True,False,True,0,False
1479424219.163401,279374,1479424219,163232121,,0.0,0.0,588.0,0.10499999672174454,0,1,False,True,False,True,False,True,0,False
1479424219.183409,279375,1479424219,183278436,,0.0,0.0,596.0,0.10499999672174454,0,1,False,True,False,True,False,True,0,False
1479424219.2034664,279376,1479424219,203291847,,0.0,0.0,592.0,0.10499999672174454,0,1,False,True,False,True,False,True,0,False
1479424219.223377,279377,1479424219,223258473,,0.0,0.0,588.0,0.10499999672174454,0,1,False,True,False,True,False,True,0,False
1479424219.2434406,279378,1479424219,243259192,,0.0,0.0,588.0,0.10499999672174454,0,1,False,True,False,True,False,True,0,False
1479424219.263381,279379,1479424219,263258758,,0.0,0.0,584.0,0.07000000029802322,0,1,False,True,False,True,False,True,0,False
1479424219.283397,279380,1479424219,283260923,,0.0,0.0,576.0,0.07000000029802322,0,1,False,True,False,True,False,True,0,False
1479424219.303443,279381,1479424219,303303921,,0.0,0.0,568.0,0.10499999672174454,0,1,False,True,False,True,False,True,0,False
1479424219.3236008,279382,1479424219,323419512,,0.0,0.0,564.0,0.14000000059604645,0,1,False,True,False,True,False,True,0,False
1479424219.343379,279383,1479424219,343260900,,0.0,0.0,560.0,0.14000000059604645,0,1,False,True,False,True,False,True,0,False
1479424219.3634102,279384,1479424219,363278222,,0.0,0.0,568.0,0.14000000059604645,0,1,False,True,False,True,False,True,0,False
1479424219.3833742,279385,1479424219,383239337,,0.0,0.0,568.0,0.14000000059604645,0,1,False,True,False,True,False,True,0,False
1479424219.4034204,279386,1479424219,403278791,,0.0,0.0,572.0,0.14000000059604645,0,1,False,True,False,True,False,True,0,False
1479424219.4236147,279387,1479424219,423391038,,0.0,0.0,576.0,0.14000000059604645,0,1,False,True,False,True,False,True,0,False
1479424219.443446,279388,1479424219,443309586,,0.0,0.0,576.0,0.10499999672174454,0,1,False,True,False,True,False,True,0,False
1479424219.4633687,279389,1479424219,463232019,,0.0,0.0,580.0,0.07000000029802322,0,1,False,True,False,True,False,True,0,False
1479424219.4833539,279390,1479424219,483226208,,0.0,0.0,584.0,0.07000000029802322,0,1,False,True,False,True,False,True,0,False
1479424219.5033567,279391,1479424219,503233551,,0.0,0.0,576.0,0.07000000029802322,0,1,False,True,False,True,False,True,0,False
1479424219.523605,279392,1479424219,523437719,,0.0,0.0,568.0,0.07000000029802322,0,1,False,True,False,True,False,True,0,False
1479424219.5434265,279393,1479424219,543265792,,0.0,0.0,564.0,0.07000000029802322,0,1,False,True,False,True,False,True,0,False
1479424219.5633693,279394,1479424219,563241905,,0.0,0.0,564.0,0.07000000029802322,0,1,False,True,False,True,False,True,0,False
1479424219.5834224,279395,1479424219,583286231,,0.0,0.0,564.0,0.07000000029802322,0,1,False,True,False,True,False,True,0,False
1479424219.6035042,279396,1479424219,603383756,,0.0,0.0,560.0,0.07000000029802322,0,1,False,True,False,True,False,True,0,False
1479424219.6238148,279397,1479424219,623656301,,0.0,0.0,568.0,0.07000000029802322,0,1,False,True,False,True,False,True,0,False
1479424219.6436012,279398,1479424219,643427665,,0.0,0.0,568.0,0.03500000014901161,0,1,False,True,False,True,False,True,0,False
1479424219.6636465,279399,1479424219,663513093,,0.0,0.0,572.0,0.03500000014901161,0,1,False,True,False,True,False,True,0,False
1479424219.683453,279400,1479424219,683322029,,0.0,0.0,568.0,0.03500000014901161,0,1,False,True,False,True,False,True,0,False
1479424219.7036595,279401,1479424219,703423981,,0.0,0.0,576.0,0.03500000014901161,0,1,False,True,False,True,False,True,0,False
1479424219.7240877,279402,1479424219,723929795,,0.0,0.0,576.0,0.03500000014901161,0,1,False,True,False,True,False,True,0,False
1479424219.7434464,279403,1479424219,743280689,,0.0,0.0,564.0,0.03500000014901161,0,1,False,True,False,True,False,True,0,False
1479424219.7633953,279404,1479424219,763261527,,0.0,0.0,560.0,0.07000000029802322,0,1,False,True,False,True,False,True,0,False
1479424219.7833822,279405,1479424219,783235059,,0.0,0.0,564.0,0.07000000029802322,0,1,False,True,False,True,False,True,0,False
1479424219.8034406,279406,1479424219,803280399,,0.0,0.0,572.0,0.07000000029802322,0,1,False,True,False,True,False,True,0,False
1479424219.8241665,279407,1479424219,824016201,,0.0,0.0,576.0,0.03500000014901161,0,1,False,True,False,True,False,True,0,False
1479424219.8434768,279408,1479424219,843259094,,0.0,0.0,584.0,0.03500000014901161,0,1,False,True,False,True,False,True,0,False
1479424219.8634188,279409,1479424219,863261204,,0.0,0.0,576.0,0.03500000014901161,0,1,False,True,False,True,False,True,0,False
1479424219.8834035,279410,1479424219,883235459,,0.0,0.0,580.0,0.03500000014901161,0,1,False,True,False,True,False,True,0,False
1479424219.9034653,279411,1479424219,903279015,,0.0,0.0,584.0,0.03500000014901161,0,1,False,True,False,True,False,True,0,False
1479424219.9241014,279412,1479424219,923968101,,0.0,0.0,576.0,0.03500000014901161,0,1,False,True,False,True,False,True,0,False
1479424219.943493,279413,1479424219,943236282,,0.0,0.0,568.0,0.03500000014901161,0,1,False,True,False,True,False,True,0,False
1479424219.9634204,279414,1479424219,963280196,,0.0,0.0,560.0,0.03500000014901161,0,1,False,True,False,True,False,True,0,False
1479424219.9833992,279415,1479424219,983265161,,0.0,0.0,564.0,0.03500000014901161,0,1,False,True,False,True,False,True,0,False
1479424220.00339,279416,1479424220,3262061,,0.0,0.0,560.0,0.03500000014901161,0,1,False,True,False,True,False,True,0,False
1479424220.0234334,279417,1479424220,23279704,,0.0,0.0,564.0,0.03500000014901161,0,1,False,True,False,True,False,True,0,False
1479424220.0434513,279418,1479424220,43288260,,0.0,0.0,564.0,0.03500000014901161,0,1,False,True,False,True,False,True,0,False
1479424220.0634046,279419,1479424220,63270181,,0.0,0.0,568.0,0.03500000014901161,0,1,False,True,False,True,False,True,0,False
1479424220.083469,279420,1479424220,83287526,,0.0,0.0,564.0,0.03500000014901161,0,1,False,True,False,True,False,True,0,False
1479424220.1034558,279421,1479424220,103294016,,0.0,0.0,564.0,0.03500000014901161,0,1,False,True,False,True,False,True,0,False
1479424220.1234405,279422,1479424220,123282433,,0.0,0.0,568.0,0.03500000014901161,0,1,False,True,False,True,False,True,0,False
1479424220.1434412,279423,1479424220,143305681,,0.0,0.0,572.0,0.03500000014901161,0,1,False,True,False,True,False,True,0,False
1479424220.163415,279424,1479424220,163277418,,0.0,0.0,580.0,0.03500000014901161,0,1,False,True,False,True,False,True,0,False
1479424220.183457,279425,1479424220,183251703,,0.0,0.0,584.0,0.0,0,1,False,True,False,True,False,True,0,False
1479424220.203472,279426,1479424220,203302184,,0.0,0.0,584.0,0.03500000014901161,0,1,False,True,False,True,False,True,0,False
1479424220.2234018,279427,1479424220,223234533,,0.0,0.0,580.0,0.03500000014901161,0,1,False,True,False,True,False,True,0,False
1479424220.2433891,279428,1479424220,243241566,,0.0,0.0,588.0,0.03500000014901161,0,1,False,True,False,True,False,True,0,False
1479424220.2634397,279429,1479424220,263285167,,0.0,0.0,584.0,0.03500000014901161,0,1,False,True,False,True,False,True,0,False
1479424220.2834246,279430,1479424220,283280458,,0.0,0.0,584.0,0.0,0,1,False,True,False,True,False,True,0,False
1479424220.3034136,279431,1479424220,303260732,,0.0,0.0,580.0,0.0,0,1,False,True,False,True,False,True,0,False
1479424220.3234026,279432,1479424220,323269042,,0.0,0.0,572.0,0.03500000014901161,0,1,False,True,False,True,False,True,0,False
1479424220.3433878,279433,1479424220,343260478,,0.0,0.0,572.0,0.03500000014901161,0,1,False,True,False,True,False,True,0,False
1479424220.3634303,279434,1479424220,363283202,,0.0,0.0,568.0,0.03500000014901161,0,1,False,True,False,True,False,True,0,False
1479424220.3834743,279435,1479424220,383304833,,0.0,0.0,568.0,0.07000000029802322,0,1,False,True,False,True,False,True,0,False
1479424220.403465,279436,1479424220,403297630,,0.0,0.0,560.0,0.07000000029802322,0,1,False,True,False,True,False,True,0,False
1479424220.423386,279437,1479424220,423235679,,0.0,0.0,564.0,0.07000000029802322,0,1,False,True,False,True,False,True,0,False
1479424220.443429,279438,1479424220,443297659,,0.0,0.0,568.0,0.07000000029802322,0,1,False,True,False,True,False,True,0,False
1479424220.4634197,279439,1479424220,463277463,,0.0,0.0,576.0,0.07000000029802322,0,1,False,True,False,True,False,True,0,False
1479424220.4833763,279440,1479424220,483237218,,0.0,0.0,572.0,0.07000000029802322,0,1,False,True,False,True,False,True,0,False
1479424220.5034084,279441,1479424220,503261662,,0.0,0.0,576.0,0.07000000029802322,0,1,False,True,False,True,False,True,0,False
1479424220.5234103,279442,1479424220,523262318,,0.0,0.0,576.0,0.03500000014901161,0,1,False,True,False,True,False,True,0,False
1479424220.5433798,279443,1479424220,543260840,,0.0,0.0,580.0,0.03500000014901161,0,1,False,True,False,True,False,True,0,False
1479424220.5634131,279444,1479424220,563269368,,0.0,0.0,580.0,0.03500000014901161,0,1,False,True,False,True,False,True,0,False
1479424220.5833738,279445,1479424220,583245961,,0.0,0.0,580.0,0.03500000014901161,0,1,False,True,False,True,False,True,0,False
1479424220.6034586,279446,1479424220,603299868,,0.0,0.0,572.0,0.03500000014901161,0,1,False,True,False,True,False,True,0,False
1479424220.6234398,279447,1479424220,623282694,,0.0,0.0,568.0,0.03500000014901161,0,1,False,True,False,True,False,True,0,False
1479424220.6434314,279448,1479424220,643304935,,0.0,0.0,572.0,0.03500000014901161,0,1,False,True,False,True,False,True,0,False
1479424220.6634197,279449,1479424220,663281086,,0.0,0.0,572.0,0.03500000014901161,0,1,False,True,False,True,False,True,0,False
1479424220.6834288,279450,1479424220,683279597,,0.0,0.0,580.0,0.03500000014901161,0,1,False,True,False,True,False,True,0,False
1479424220.703424,279451,1479424220,703279583,,0.0,0.0,580.0,0.03500000014901161,0,1,False,True,False,True,False,True,0,False
1479424220.7234516,279452,1479424220,723284704,,0.0,0.0,580.0,0.03500000014901161,0,1,False,True,False,True,False,True,0,False
1479424220.7434075,279453,1479424220,743276830,,0.0,0.0,580.0,0.03500000014901161,0,1,False,True,False,True,False,True,0,False
1479424220.7634003,279454,1479424220,763263325,,0.0,0.0,580.0,0.03500000014901161,0,1,False,True,False,True,False,True,0,False
1479424220.7856536,279455,1479424220,783260817,,0.0,0.0,576.0,0.03500000014901161,0,1,False,True,False,True,False,True,0,False
1479424220.8034172,279456,1479424220,803282548,,0.0,0.0,572.0,0.03500000014901161,0,1,False,True,False,True,False,True,0,False
1479424220.823419,279457,1479424220,823268647,,0.0,0.0,568.0,0.03500000014901161,0,1,False,True,False,True,False,True,0,False
1479424220.8433917,279458,1479424220,843235742,,0.0,0.0,568.0,0.03500000014901161,0,1,False,True,False,True,False,True,0,False
1479424220.8634315,279459,1479424220,863279751,,0.0,0.0,568.0,0.03500000014901161,0,1,False,True,False,True,False,True,0,False
1479424220.88341,279460,1479424220,883282123,,0.0,0.0,564.0,0.03500000014901161,0,1,False,True,False,True,False,True,0,False
1479424220.9033916,279461,1479424220,903234380,,0.0,0.0,568.0,0.03500000014901161,0,1,False,True,False,True,False,True,0,False
1479424220.9234114,279462,1479424220,923267825,,0.0,0.0,568.0,0.03500000014901161,0,1,False,True,False,True,False,True,0,False
1479424220.9434257,279463,1479424220,943278289,,0.0,0.0,568.0,0.03500000014901161,0,1,False,True,False,True,False,True,0,False
1479424220.963418,279464,1479424220,963276519,,0.0,0.0,564.0,0.03500000014901161,0,1,False,True,False,True,False,True,0,False
1479424220.9834433,279465,1479424220,983267266,,0.0,0.0,564.0,0.03500000014901161,0,1,False,True,False,True,False,True,0,False
1479424221.0034666,279466,1479424221,3322152,,0.0,0.0,568.0,0.03500000014901161,0,1,False,True,False,True,False,True,0,False
1479424221.0234263,279467,1479424221,23280085,,0.0,0.0,564.0,0.03500000014901161,0,1,False,True,False,True,False,True,0,False
1479424221.0434375,279468,1479424221,43312381,,0.0,0.0,564.0,0.03500000014901161,0,1,False,True,False,True,False,True,0,False
1479424221.0634499,279469,1479424221,63304329,,0.0,0.0,564.0,0.03500000014901161,0,1,False,True,False,True,False,True,0,False
1479424221.0835128,279470,1479424221,83317856,,0.0,0.0,572.0,0.03500000014901161,0,1,False,True,False,True,False,True,0,False
1479424221.1034656,279471,1479424221,103291910,,0.0,0.0,568.0,0.03500000014901161,0,1,False,True,False,True,False,True,0,False
1479424221.1234145,279472,1479424221,123279244,,0.0,0.0,576.0,0.03500000014901161,0,1,False,True,False,True,False,True,0,False
1479424221.1434283,279473,1479424221,143277219,,0.0,0.0,576.0,0.0,0,1,False,True,False,True,False,True,0,False
1479424221.1634314,279474,1479424221,163280519,,0.0,0.0,568.0,0.0,0,1,False,True,False,True,False,True,0,False
1479424221.183389,279475,1479424221,183278997,,0.0,0.0,564.0,0.0,0,1,False,True,False,True,False,True,0,False
1479424221.2034154,279476,1479424221,203279461,,0.0,0.0,560.0,0.0,0,1,False,True,False,True,False,True,0,False
1479424221.2234185,279477,1479424221,223278030,,0.0,0.0,552.0,0.0,0,1,False,True,False,True,False,True,0,False
1479424221.243444,279478,1479424221,243323696,,0.0,0.0,548.0,0.03500000014901161,0,1,False,True,False,True,False,True,0,False
1479424221.263435,279479,1479424221,263286703,,0.0,0.0,552.0,0.03500000014901161,0,1,False,True,False,True,False,True,0,False
1479424221.2834485,279480,1479424221,283303794,,0.0,0.0,556.0,0.03500000014901161,0,1,False,True,False,True,False,True,0,False
1479424221.3036618,279481,1479424221,303365945,,0.0,0.0,552.0,0.03500000014901161,0,1,False,True,False,True,False,True,0,False
1479424221.3234482,279482,1479424221,323306202,,0.0,0.0,548.0,0.03500000014901161,0,1,False,True,False,True,False,True,0,False
1479424221.3434618,279483,1479424221,343267762,,0.0,0.0,556.0,0.03500000014901161,0,1,False,True,False,True,False,True,0,False
1479424221.3634133,279484,1479424221,363267551,,0.0,0.0,560.0,0.03500000014901161,0,1,False,True,False,True,False,True,0,False
1479424221.3834596,279485,1479424221,383307241,,0.0,0.0,556.0,0.03500000014901161,0,1,False,True,False,True,False,True,0,False
1479424221.4035115,279486,1479424221,403334985,,0.0,0.0,548.0,0.03500000014901161,0,1,False,True,False,True,False,True,0,False
1479424221.4234352,279487,1479424221,423304299,,0.0,0.0,548.0,0.03500000014901161,0,1,False,True,False,True,False,True,0,False
1479424221.4434545,279488,1479424221,443299272,,0.0,0.0,552.0,0.03500000014901161,0,1,False,True,False,True,False,True,0,False
1479424221.4634297,279489,1479424221,463277969,,0.0,0.0,552.0,0.03500000014901161,0,1,False,True,False,True,False,True,0,False
1479424221.4835067,279490,1479424221,483309919,,0.0,0.0,548.0,0.03500000014901161,0,1,False,True,False,True,False,True,0,False
1479424221.50346,279491,1479424221,503292423,,0.0,0.0,544.0,0.03500000014901161,0,1,False,True,False,True,False,True,0,False
1479424221.523418,279492,1479424221,523282289,,0.0,0.0,540.0,0.0,0,1,False,True,False,True,False,True,0,False
1479424221.5434225,279493,1479424221,543276980,,0.0,0.0,536.0,0.0,0,1,False,True,False,True,False,True,0,False
1479424221.56347,279494,1479424221,563337349,,0.0,0.0,536.0,0.03500000014901161,0,1,False,True,False,True,False,True,0,False
1479424221.5834692,279495,1479424221,583324420,,0.0,0.0,524.0,0.03500000014901161,0,1,False,True,False,True,False,True,0,False
1479424221.6034665,279496,1479424221,603324066,,0.0,0.0,528.0,0.03500000014901161,0,1,False,True,False,True,False,True,0,False
1479424221.623423,279497,1479424221,623279587,,0.0,0.0,528.0,0.03500000014901161,0,1,False,True,False,True,False,True,0,False
1479424221.6434345,279498,1479424221,643304024,,0.0,0.0,532.0,0.03500000014901161,0,1,False,True,False,True,False,True,0,False
1479424221.6634228,279499,1479424221,663281976,,0.0,0.0,532.0,0.03500000014901161,0,1,False,True,False,True,False,True,0,False
1479424221.6834824,279500,1479424221,683305073,,0.0,0.0,532.0,0.03500000014901161,0,1,False,True,False,True,False,True,0,False
1479424221.7034795,279501,1479424221,703311681,,0.0,0.0,532.0,0.03500000014901161,0,1,False,True,False,True,False,True,0,False
1479424221.7234247,279502,1479424221,723278546,,0.0,0.0,536.0,0.03500000014901161,0,1,False,True,False,True,False,True,0,False
1479424221.7434785,279503,1479424221,743322820,,0.0,0.0,528.0,0.03500000014901161,0,1,False,True,False,True,False,True,0,False
1479424221.7634404,279504,1479424221,763291786,,0.0,0.0,524.0,0.03500000014901161,0,1,False,True,False,True,False,True,0,False
1479424221.7834313,279505,1479424221,783288094,,0.0,0.0,524.0,0.03500000014901161,0,1,False,True,False,True,False,True,0,False
1479424221.8034525,279506,1479424221,803322622,,0.0,0.0,520.0,0.0,0,1,False,True,False,True,False,True,0,False
1479424221.823437,279507,1479424221,823285753,,0.0,0.0,520.0,0.0,0,1,False,True,False,True,False,True,0,False
1479424221.8435147,279508,1479424221,843411010,,0.0,0.0,516.0,0.03500000014901161,0,1,False,True,False,True,False,True,0,False
1479424221.8634577,279509,1479424221,863323003,,0.0,0.0,512.0,0.03500000014901161,0,1,False,True,False,True,False,True,0,False
1479424221.8835237,279510,1479424221,883361128,,0.0,0.0,508.0,0.0,0,1,False,True,False,True,False,True,0,False
1479424221.9034564,279511,1479424221,903314346,,0.0,0.0,508.0,0.0,0,1,False,True,False,True,False,True,0,False
1479424221.9234676,279512,1479424221,923312685,,0.0,0.0,508.0,0.0,0,1,False,True,False,True,False,True,0,False
1479424221.943462,279513,1479424221,943304931,,0.0,0.0,508.0,0.0,0,1,False,True,False,True,False,True,0,False
1479424221.963461,279514,1479424221,963324756,,0.0,0.0,508.0,0.0,0,1,False,True,False,True,False,True,0,False
1479424221.9834588,279515,1479424221,983282334,,0.0,0.0,516.0,0.0,0,1,False,True,False,True,False,True,0,False
1479424222.0034578,279516,1479424222,3322242,,0.0,0.0,532.0,0.0,0,1,False,True,False,True,False,True,0,False
1479424222.0235968,279517,1479424222,23453950,,0.0,0.0,548.0,0.0,0,1,False,True,False,True,False,True,0,False
1479424222.04352,279518,1479424222,43352512,,0.0,0.0,556.0,0.0,0,1,False,True,False,True,False,True,0,False
1479424222.0634794,279519,1479424222,63322040,,0.0,0.0,560.0,0.0,0,1,False,True,False,True,False,True,0,False
1479424222.0834506,279520,1479424222,83289068,,0.0,0.0,572.0,0.0,0,1,False,True,False,True,False,True,0,False
1479424222.1034248,279521,1479424222,103303230,,0.0,0.0,584.0,0.0,0,1,False,True,False,True,False,True,0,False
1479424222.1234198,279522,1479424222,123281301,,0.0,0.0,588.0,-0.03500000014901161,0,1,False,True,False,True,False,True,0,False
1479424222.1434927,279523,1479424222,143325158,,0.0,0.0,588.0,-0.03500000014901161,0,1,False,True,False,True,False,True,0,False
1479424222.1635633,279524,1479424222,163410409,,0.0,0.0,592.0,-0.03500000014901161,0,1,False,True,False,True,False,True,0,False
1479424222.1837063,279525,1479424222,183486288,,0.0,0.0,596.0,-0.03500000014901161,0,1,False,True,False,True,False,True,0,False
1479424222.2034876,279526,1479424222,203347173,,0.0,0.0,596.0,-0.03500000014901161,0,1,False,True,False,True,False,True,0,False
1479424222.2234588,279527,1479424222,223284835,,0.0,0.0,596.0,-0.03500000014901161,0,1,False,True,False,True,False,True,0,False
1479424222.2434475,279528,1479424222,243305457,,0.0,0.0,600.0,-0.03500000014901161,0,1,False,True,False,True,False,True,0,False
1479424222.2634249,279529,1479424222,263279112,,0.0,0.0,600.0,-0.03500000014901161,0,1,False,True,False,True,False,True,0,False
1479424222.2834277,279530,1479424222,283265081,,0.0,0.0,604.0,0.0,0,1,False,True,False,True,False,True,0,False
1479424222.3034306,279531,1479424222,303321174,,0.0,0.0,600.0,0.0,0,1,False,True,False,True,False,True,0,False
1479424222.323417,279532,1479424222,323278848,,0.0,0.0,612.0,0.0,0,1,False,True,False,True,False,True,0,False
1479424222.34343,279533,1479424222,343287857,,0.0,0.0,616.0,0.0,0,1,False,True,False,True,False,True,0,False
1479424222.3634427,279534,1479424222,363303950,,0.0,0.0,620.0,0.0,0,1,False,True,False,True,False,True,0,False
1479424222.3835187,279535,1479424222,383305281,,0.0,0.0,620.0,0.0,0,1,False,True,False,True,False,True,0,False
1479424222.4034166,279536,1479424222,403286642,,0.0,0.0,616.0,0.0,0,1,False,True,False,True,False,True,0,False
1479424222.4234505,279537,1479424222,423323153,,0.0,0.0,616.0,0.0,0,1,False,True,False,True,False,True,0,False
1479424222.4435391,279538,1479424222,443348174,,0.0,0.0,616.0,0.0,0,1,False,True,False,True,False,True,0,False
1479424222.463413,279539,1479424222,463286922,,0.0,0.0,612.0,0.0,0,1,False,True,False,True,False,True,0,False
1479424222.483434,279540,1479424222,483279725,,0.0,0.0,612.0,0.0,0,1,False,True,False,True,False,True,0,False
1479424222.5034528,279541,1479424222,503322330,,0.0,0.0,620.0,0.0,0,1,False,True,False,True,False,True,0,False
1479424222.5233994,279542,1479424222,523278005,,0.0,0.0,616.0,0.0,0,1,False,True,False,True,False,True,0,False
1479424222.5434337,279543,1479424222,543322283,,0.0,0.0,612.0,0.0,0,1,False,True,False,True,False,True,0,False
1479424222.5634537,279544,1479424222,563320176,,0.0,0.0,612.0,0.0,0,1,False,True,False,True,False,True,0,False
1479424222.5834143,279545,1479424222,583279427,,0.0,0.0,608.0,0.0,0,1,False,True,False,True,False,True,0,False
1479424222.6035583,279546,1479424222,603364833,,0.0,0.0,604.0,0.0,0,1,False,True,False,True,False,True,0,False
1479424222.623443,279547,1479424222,623304924,,0.0,0.0,596.0,0.0,0,1,False,True,False,True,False,True,0,False
1479424222.6434486,279548,1479424222,643311106,,0.0,0.0,596.0,0.03500000014901161,0,1,False,True,False,True,False,True,0,False
1479424222.6634917,279549,1479424222,663338788,,0.0,0.0,596.0,0.03500000014901161,0,1,False,True,False,True,False,True,0,False
1479424222.683488,279550,1479424222,683324215,,0.0,0.0,596.0,0.03500000014901161,0,1,False,True,False,True,False,True,0,False
1479424222.7034767,279551,1479424222,703342297,,0.0,0.0,588.0,0.03500000014901161,0,1,False,True,False,True,False,True,0,False
1479424222.7234843,279552,1479424222,723323383,,0.0,0.0,592.0,0.03500000014901161,0,1,False,True,False,True,False,True,0,False
1479424222.7435238,279553,1479424222,743367551,,0.0,0.0,588.0,0.03500000014901161,0,1,False,True,False,True,False,True,0,False
1479424222.763443,279554,1479424222,763321240,,0.0,0.0,588.0,0.07000000029802322,0,1,False,True,False,True,False,True,0,False
1479424222.7836154,279555,1479424222,783354051,,0.0,0.0,580.0,0.07000000029802322,0,1,False,True,False,True,False,True,0,False
1479424222.8033402,279556,1479424222,803271039,,0.0,0.0,584.0,0.07000000029802322,0,1,False,True,False,True,False,True,0,False
1479424222.8233728,279557,1479424222,823302538,,0.0,0.0,580.0,0.07000000029802322,0,1,False,True,False,True,False,True,0,False
1479424222.8434687,279558,1479424222,843339833,,0.0,0.0,576.0,0.07000000029802322,0,1,False,True,False,True,False,True,0,False
1479424222.863337,279559,1479424222,863273216,,0.0,0.0,576.0,0.07000000029802322,0,1,False,True,False,True,False,True,0,False
1479424222.8834236,279560,1479424222,883324911,,0.0,0.0,584.0,0.07000000029802322,0,1,False,True,False,True,False,True,0,False
1479424222.9034545,279561,1479424222,903344567,,0.0,0.0,588.0,0.07000000029802322,0,1,False,True,False,True,False,True,0,False
1479424222.9234605,279562,1479424222,923322776,,0.0,0.0,592.0,0.07000000029802322,0,1,False,True,False,True,False,True,0,False
1479424222.9434648,279563,1479424222,943314741,,0.0,0.0,592.0,0.07000000029802322,0,1,False,True,False,True,False,True,0,False
1479424222.9634745,279564,1479424222,963336184,,0.0,0.0,592.0,0.03500000014901161,0,1,False,True,False,True,False,True,0,False
1479424222.98344,279565,1479424222,983287105,,0.0,0.0,604.0,0.0,0,1,False,True,False,True,False,True,0,False
1479424223.0035322,279566,1479424223,3337417,,0.0,0.0,592.0,0.0,0,1,False,True,False,True,False,True,0,False
1479424223.0236318,279567,1479424223,23496990,,0.0,0.0,576.0,0.0,0,1,False,True,False,True,False,True,0,False
1479424223.0435526,279568,1479424223,43340603,,0.0,0.0,564.0,0.0,0,1,False,True,False,True,False,True,0,False
1479424223.063448,279569,1479424223,63307232,,0.0,0.0,560.0,0.0,0,1,False,True,False,True,False,True,0,False
1479424223.0835116,279570,1479424223,83325273,,0.0,0.0,552.0,0.0,0,1,False,True,False,True,False,True,0,False
1479424223.1034577,279571,1479424223,103321614,,0.0,0.0,544.0,0.0,0,1,False,True,False,True,False,True,0,False
1479424223.1236427,279572,1479424223,123462671,,0.0,0.0,548.0,0.0,0,1,False,True,False,True,False,True,0,False
1479424223.1435401,279573,1479424223,143348454,,0.0,0.0,556.0,0.03500000014901161,0,1,False,True,False,True,False,True,0,False
1479424223.1634986,279574,1479424223,163350711,,0.0,0.0,568.0,0.0,0,1,False,True,False,True,False,True,0,False
1479424223.1834366,279575,1479424223,183289200,,0.0,0.0,560.0,0.0,0,1,False,True,False,True,False,True,0,False
1479424223.2035341,279576,1479424223,203349299,,0.0,0.0,556.0,0.0,0,1,False,True,False,True,False,True,0,False
1479424223.2235646,279577,1479424223,223438094,,0.0,0.0,552.0,0.0,0,1,False,True,False,True,False,True,0,False
1479424223.2434313,279578,1479424223,243308392,,0.0,0.0,544.0,0.0,0,1,False,True,False,True,False,True,0,False
1479424223.2633944,279579,1479424223,263295904,,0.0,0.0,532.0,0.0,0,1,False,True,False,True,False,True,0,False
1479424223.283371,279580,1479424223,283298164,,0.0,0.0,524.0,0.0,0,1,False,True,False,True,False,True,0,False
1479424223.3034697,279581,1479424223,303345299,,0.0,0.0,524.0,0.03500000014901161,0,1,False,True,False,True,False,True,0,False
1479424223.3235795,279582,1479424223,323460356,,0.0,0.0,520.0,0.0,0,1,False,True,False,True,False,True,0,False
1479424223.3434975,279583,1479424223,343319727,,0.0,0.0,528.0,0.0,0,1,False,True,False,True,False,True,0,False
1479424223.3634362,279584,1479424223,363305115,,0.0,0.0,520.0,0.0,0,1,False,True,False,True,False,True,0,False
1479424223.3834996,279585,1479424223,383322234,,0.0,0.0,520.0,0.0,0,1,False,True,False,True,False,True,0,False
1479424223.4034345,279586,1479424223,403318738,,0.0,0.0,512.0,0.0,0,1,False,True,False,True,False,True,0,False
1479424223.4235985,279587,1479424223,423482332,,0.0,0.0,512.0,0.0,0,1,False,True,False,True,False,True,0,False
1479424223.443477,279588,1479424223,443334856,,0.0,0.0,504.0,0.0,0,1,False,True,False,True,False,True,0,False
1479424223.4634395,279589,1479424223,463333169,,0.0,0.0,488.0,0.0,0,1,False,True,False,True,False,True,0,False
1479424223.4834194,279590,1479424223,483306563,,0.0,0.0,476.0,0.0,0,1,False,True,False,True,False,True,0,False
1479424223.503423,279591,1479424223,503320786,,0.0,0.0,460.0,0.0,0,1,False,True,False,True,False,True,0,False
1479424223.523426,279592,1479424223,523306179,,0.0,0.0,448.0,0.0,0,1,False,True,False,True,False,True,0,False
1479424223.543485,279593,1479424223,543308182,,0.0,0.0,428.0,-0.03500000014901161,0,1,False,True,False,True,False,True,0,False
1479424223.5633914,279594,1479424223,563314988,,0.0,0.0,420.0,-0.03500000014901161,0,1,False,True,False,True,False,True,0,False
1479424223.5833797,279595,1479424223,583276327,,0.0,0.0,408.0,-0.03500000014901161,0,1,False,True,False,True,False,True,0,False
1479424223.603458,279596,1479424223,603337482,,0.0,0.0,392.0,-0.03500000014901161,0,1,False,True,False,True,False,True,0,False
1479424223.6234555,279597,1479424223,623326885,,0.0,0.0,372.0,-0.03500000014901161,0,1,False,True,False,True,False,True,0,False
1479424223.643464,279598,1479424223,643323898,,0.0,0.0,364.0,-0.03500000014901161,0,1,False,True,False,True,False,True,0,False
1479424223.6634343,279599,1479424223,663311103,,0.0,0.0,360.0,-0.07000000029802322,0,1,False,True,False,True,False,True,0,False
1479424223.6834967,279600,1479424223,683360483,,0.0,0.0,348.0,-0.10499999672174454,0,1,False,True,False,True,False,True,0,False
1479424223.7034488,279601,1479424223,703335823,,0.0,0.0,344.0,-0.14000000059604645,0,1,False,True,False,True,False,True,0,False
1479424223.7234585,279602,1479424223,723335527,,0.0,0.0,340.0,-0.14000000059604645,0,1,False,True,False,True,False,True,0,False
1479424223.7435691,279603,1479424223,743338432,,0.0,0.0,344.0,-0.14000000059604645,0,1,False,True,False,True,False,True,0,False
1479424223.7635608,279604,1479424223,763412453,,0.0,0.0,340.0,-0.14000000059604645,0,1,False,True,False,True,False,True,0,False
1479424223.7836044,279605,1479424223,783462585,,0.0,0.0,324.0,-0.17499999701976776,0,1,False,True,False,True,False,True,0,False
1479424223.8036194,279606,1479424223,803508677,,0.0,0.0,316.0,-0.20999999344348907,0,1,False,True,False,True,False,True,0,False
1479424223.8236597,279607,1479424223,823535542,,0.0,0.0,308.0,-0.20999999344348907,0,1,False,True,False,True,False,True,0,False
1479424223.843487,279608,1479424223,843321783,,0.0,0.0,300.0,-0.20999999344348907,0,1,False,True,False,True,False,True,0,False
1479424223.8635201,279609,1479424223,863411519,,0.0,0.0,292.0,-0.20999999344348907,0,1,False,True,False,True,False,True,0,False
1479424223.8837287,279610,1479424223,883493992,,0.0,0.0,292.0,-0.24500000476837158,0,1,False,True,False,True,False,True,0,False
1479424223.903648,279611,1479424223,903529376,,0.0,0.0,292.0,-0.24500000476837158,0,1,False,True,False,True,False,True,0,False
1479424223.923439,279612,1479424223,923313198,,0.0,0.0,284.0,-0.2800000011920929,0,1,False,True,False,True,False,True,0,False
1479424223.943471,279613,1479424223,943311106,,0.0,0.0,276.0,-0.2800000011920929,0,1,False,True,False,True,False,True,0,False
1479424223.9634528,279614,1479424223,963321851,,0.0,0.0,264.0,-0.3149999976158142,0,1,False,True,False,True,False,True,0,False
1479424223.9862666,279615,1479424223,983338796,,0.0,0.0,248.0,-0.3149999976158142,0,1,False,True,False,True,False,True,0,False
1479424224.003441,279616,1479424224,3304540,,0.0,0.0,248.0,-0.3149999976158142,0,1,False,True,False,True,False,True,0,False
1479424224.0234518,279617,1479424224,23324293,,0.0,0.0,240.0,-0.3149999976158142,0,1,False,True,False,True,False,True,0,False
1479424224.0434482,279618,1479424224,43324919,,0.0,0.0,240.0,-0.3149999976158142,0,1,False,True,False,True,False,True,0,False
1479424224.0634835,279619,1479424224,63362217,,0.0,0.0,244.0,-0.3499999940395355,0,1,False,True,False,True,False,True,0,False
1479424224.0834868,279620,1479424224,83347295,,0.0,0.0,248.0,-0.3499999940395355,0,1,False,True,False,True,False,True,0,False
1479424224.1035845,279621,1479424224,103367762,,0.0,0.0,256.0,-0.3499999940395355,0,1,False,True,False,True,False,True,0,False
1479424224.1234756,279622,1479424224,123360777,,0.0,0.0,252.0,-0.38499999046325684,0,1,False,True,False,True,False,True,0,False
1479424224.1434665,279623,1479424224,143336539,,0.0,0.0,244.0,-0.41999998688697815,0,1,False,True,False,True,False,True,0,False
1479424224.163451,279624,1479424224,163337028,,0.0,0.0,240.0,-0.41999998688697815,0,1,False,True,False,True,False,True,0,False
1479424224.1863346,279625,1479424224,183357406,,0.0,0.0,236.0,-0.41999998688697815,0,1,False,True,False,True,False,True,0,False
1479424224.2034776,279626,1479424224,203367292,,0.0,0.0,232.0,-0.41999998688697815,0,1,False,True,False,True,False,True,0,False
1479424224.223527,279627,1479424224,223412055,,0.0,0.0,224.0,-0.41999998688697815,0,1,False,True,False,True,False,True,0,False
1479424224.2435937,279628,1479424224,243461484,,0.0,0.0,208.0,-0.41999998688697815,0,1,False,True,False,True,False,True,0,False
1479424224.2635956,279629,1479424224,263472758,,0.0,0.0,208.0,-0.38499999046325684,0,1,False,True,False,True,False,True,0,False
1479424224.2836254,279630,1479424224,283486721,,0.0,0.0,216.0,-0.38499999046325684,0,1,False,True,False,True,False,True,0,False
1479424224.303786,279631,1479424224,303621518,,0.0,0.0,212.0,-0.38499999046325684,0,1,False,True,False,True,False,True,0,False
1479424224.3237338,279632,1479424224,323614924,,0.0,0.0,200.0,-0.41999998688697815,0,1,False,True,False,True,False,True,0,False
1479424224.3434548,279633,1479424224,343322144,,0.0,0.0,200.0,-0.41999998688697815,0,1,False,True,False,True,False,True,0,False
1479424224.3635097,279634,1479424224,363367105,,0.0,0.0,208.0,-0.41999998688697815,0,1,False,True,False,True,False,True,0,False
1479424224.3835273,279635,1479424224,383339062,,0.0,0.0,208.0,-0.41999998688697815,0,1,False,True,False,True,False,True,0,False
1479424224.4035246,279636,1479424224,403329984,,0.0,0.0,200.0,-0.41999998688697815,0,1,False,True,False,True,False,True,0,False
