Time,header.seq,header.stamp.secs,header.stamp.nsecs,header.frame_id,throttle_pc,throttle_rate,engine_rpm
1479424214.7859235,558315,1479424214,785745486,,0.4180000126361847,0.0,2770.0
1479424214.7983575,558316,1479424214,798156734,,0.4180000126361847,0.0,2762.25
1479424214.805556,558317,1479424214,805473946,,0.4180000126361847,0.0,2762.25
1479424214.8164413,558318,1479424214,816334539,,0.4180000126361847,0.0,2754.75
1479424214.825308,558319,1479424214,825194086,,0.4180000126361847,0.0,2747.25
1479424214.8366396,558320,1479424214,836528784,,0.4180000126361847,0.0,2747.25
1479424214.8453245,558321,1479424214,845169432,,0.4180000126361847,0.0,2777.75
1479424214.8568163,558322,1479424214,856707621,,0.4180000126361847,0.0,2770.0
1479424214.8657515,558323,1479424214,865620050,,0.4180000126361847,0.0,2770.0
1479424214.876594,558324,1479424214,876413135,,0.4180000126361847,0.0,2777.75
1479424214.8852623,558325,1479424214,885116860,,0.4180000126361847,0.0,2762.25
1479424214.8981345,558326,1479424214,898031909,,0.4180000126361847,0.0,2762.25
1479424214.9053388,558327,1479424214,905218304,,0.4180000126361847,0.0,2739.5
1479424214.9167342,558328,1479424214,916679599,,0.41200000047683716,-0.00039999998989515007,2754.75
1479424214.9254835,558329,1479424214,925382461,,0.41200000047683716,-0.00039999998989515007,2754.75
1479424214.9363716,558330,1479424214,936305075,,0.4099999964237213,-0.00039999998989515007,2762.25
1479424214.945409,558331,1479424214,945329240,,0.4090000092983246,-0.00039999998989515007,2754.75
1479424214.9565954,558332,1479424214,956525065,,0.4090000092983246,-0.00039999998989515007,2754.75
1479424214.9652505,558333,1479424214,965128043,,0.40799999237060547,-0.00039999998989515007,2762.25
1479424214.9765809,558334,1479424214,976503646,,0.4059999883174896,-0.00039999998989515007,2739.5
1479424214.9854586,558335,1479424214,985387898,,0.4059999883174896,-0.00039999998989515007,2739.5
1479424214.9979093,558336,1479424214,997832393,,0.40299999713897705,-0.00039999998989515007,2770.0
1479424215.0053883,558337,1479424215,5314210,,0.39899998903274536,-0.00039999998989515007,2747.25
1479424215.016582,558338,1479424215,16501840,,0.39899998903274536,-0.00039999998989515007,2747.25
1479424215.025285,558339,1479424215,25191826,,0.3959999978542328,-0.00039999998989515007,2754.75
1479424215.0367699,558340,1479424215,36696878,,0.39500001072883606,-0.00039999998989515007,2770.0
1479424215.0454693,558341,1479424215,45388061,,0.39500001072883606,-0.00039999998989515007,2770.0
1479424215.0564063,558342,1479424215,56333115,,0.39500001072883606,-0.00039999998989515007,2739.5
1479424215.064463,558343,1479424215,64397057,,0.39500001072883606,0.0,2747.25
1479424215.0767512,558344,1479424215,76628945,,0.39500001072883606,0.0,2747.25
1479424215.085314,558345,1479424215,85173663,,0.39500001072883606,-0.00039999998989515007,2762.25
1479424215.0983458,558346,1479424215,98144096,,0.39399999380111694,-0.00039999998989515007,2724.75
1479424215.1058366,558347,1479424215,105531641,,0.39399999380111694,-0.00039999998989515007,2724.75
1479424215.1168938,558348,1479424215,116466380,,0.3930000066757202,-0.00039999998989515007,2754.75
1479424215.1255677,558349,1479424215,125218017,,0.3919999897480011,-0.00039999998989515007,2747.25
1479424215.137091,558350,1479424215,136642068,,0.3919999897480011,-0.00039999998989515007,2747.25
1479424215.1456356,558351,1479424215,145244166,,0.38999998569488525,-0.00039999998989515007,2747.25
1479424215.1572146,558352,1479424215,156813229,,0.38999998569488525,-0.00039999998989515007,2754.75
1479424215.1655874,558353,1479424215,165391570,,0.38999998569488525,-0.00039999998989515007,2754.75
1479424215.1765883,558354,1479424215,176336300,,0.3889999985694885,-0.00039999998989515007,2754.75
1479424215.1859963,558355,1479424215,185701996,,0.3889999985694885,0.0,2739.5
1479424215.1983047,558356,1479424215,198047983,,0.3889999985694885,0.0,2739.5
1479424215.20554,558357,1479424215,205303434,,0.3889999985694885,-0.00039999998989515007,2754.75
1479424215.2167988,558358,1479424215,216564585,,0.3880000114440918,-0.00039999998989515007,2754.75
1479424215.2256117,558359,1479424215,225390227,,0.3880000114440918,-0.00039999998989515007,2754.75
1479424215.2366729,558360,1479424215,236406276,,0.38600000739097595,-0.00039999998989515007,2754.75
1479424215.245388,558361,1479424215,245184475,,0.38499999046325684,-0.00039999998989515007,2739.5
1479424215.2567844,558362,1479424215,256542692,,0.38499999046325684,-0.00039999998989515007,2739.5
1479424215.2695377,558363,1479424215,265710890,,0.38499999046325684,-0.00039999998989515007,2754.75
1479424215.2769237,558364,1479424215,276674321,,0.38499999046325684,-0.00039999998989515007,2747.25
1479424215.2856762,558365,1479424215,285431831,,0.38499999046325684,-0.00039999998989515007,2747.25
1479424215.2980359,558366,1479424215,297816262,,0.38499999046325684,-0.00039999998989515007,2724.75
1479424215.3055127,558367,1479424215,305294779,,0.38499999046325684,0.0,2724.75
1479424215.3167636,558368,1479424215,316529321,,0.38499999046325684,0.0,2724.75
1479424215.3258905,558369,1479424215,325663077,,0.38499999046325684,0.0,2754.75
1479424215.3365417,558370,1479424215,336302013,,0.38499999046325684,0.0,2747.25
1479424215.3461945,558371,1479424215,345908790,,0.38499999046325684,0.0,2747.25
1479424215.3565562,558372,1479424215,356315640,,0.3840000033378601,-0.00039999998989515007,2762.25
1479424215.365405,558373,1479424215,365182881,,0.3840000033378601,-0.00039999998989515007,2739.5
1479424215.37692,558374,1479424215,376661540,,0.3840000033378601,-0.00039999998989515007,2739.5
1479424215.386114,558375,1479424215,385897830,,0.3840000033378601,-0.00039999998989515007,2747.25
1479424215.3981292,558376,1479424215,397800915,,0.3840000033378601,0.0,2739.5
1479424215.4056413,558377,1479424215,405466546,,0.3840000033378601,0.0,2739.5
1479424215.4165585,558378,1479424215,416357699,,0.3840000033378601,0.0,2739.5
1479424215.4255052,558379,1479424215,425353142,,0.3840000033378601,0.0,2717.25
1479424215.436754,558380,1479424215,436543760,,0.3840000033378601,0.0,2717.25
1479424215.4460084,558381,1479424215,445808328,,0.3840000033378601,0.0,2747.25
1479424215.4564602,558382,1479424215,456286488,,0.382999986410141,-0.00039999998989515007,2717.25
1479424215.4658284,558383,1479424215,465623361,,0.382999986410141,-0.00039999998989515007,2717.25
1479424215.4764698,558384,1479424215,476309187,,0.382999986410141,-0.00039999998989515007,2747.25
1479424215.4853914,558385,1479424215,485190702,,0.382999986410141,-0.00039999998989515007,2739.5
1479424215.4988368,558386,1479424215,498639082,,0.382999986410141,-0.00039999998989515007,2739.5
1479424215.5059674,558387,1479424215,505791314,,0.382999986410141,0.0,2710.0
1479424215.5165215,558388,1479424215,516352879,,0.382999986410141,0.0,2747.25
1479424215.5256405,558389,1479424215,525475855,,0.382999986410141,0.0,2747.25
1479424215.536538,558390,1479424215,536376310,,0.382999986410141,0.0,2717.25
1479424215.5456264,558391,1479424215,545429295,,0.382999986410141,0.0,2732.0
1479424215.557299,558392,1479424215,557148352,,0.382999986410141,0.0,2732.0
1479424215.5653045,558393,1479424215,565120143,,0.382999986410141,0.0,2724.75
1479424215.576633,558394,1479424215,576433931,,0.382999986410141,0.0,2717.25
1479424215.5855799,558395,1479424215,585358433,,0.382999986410141,0.0,2717.25
1479424215.598264,558396,1479424215,598020654,,0.382999986410141,0.0,2732.0
1479424215.6059272,558397,1479424215,605745078,,0.382999986410141,0.0,2739.5
1479424215.617137,558398,1479424215,616941722,,0.382999986410141,0.0,2739.5
1479424215.6245456,558399,1479424215,624384580,,0.382999986410141,0.0,2710.0
1479424215.6365197,558400,1479424215,636352125,,0.382999986410141,0.0,2724.75
1479424215.6458597,558401,1479424215,645686760,,0.382999986410141,0.0,2724.75
1479424215.6568027,558402,1479424215,656642252,,0.382999986410141,0.0,2739.5
1479424215.6658227,558403,1479424215,665657423,,0.382999986410141,0.0,2710.0
1479424215.676976,558404,1479424215,676799137,,0.382999986410141,0.0,2710.0
1479424215.684513,558405,1479424215,684371445,,0.382999986410141,0.0,2739.5
1479424215.6982539,558406,1479424215,697965276,,0.382999986410141,0.0,2717.25
1479424215.7057216,558407,1479424215,705534131,,0.382999986410141,0.0,2717.25
1479424215.716961,558408,1479424215,716798102,,0.382999986410141,0.0,2724.75
1479424215.7253032,558409,1479424215,725120989,,0.382999986410141,0.0,2739.5
1479424215.737013,558410,1479424215,736812030,,0.382999986410141,0.0,2739.5
1479424215.7447405,558411,1479424215,744511791,,0.382999986410141,0.0,2717.25
1479424215.7567894,558412,1479424215,756622950,,0.382999986410141,0.0,2710.0
1479424215.765688,558413,1479424215,765544714,,0.382999986410141,0.0,2710.0
1479424215.777189,558414,1479424215,776920802,,0.382999986410141,0.0,2732.0
1479424215.7858148,558415,1479424215,785654880,,0.382999986410141,0.0,2732.0
1479424215.7984123,558416,1479424215,798205276,,0.382999986410141,0.0,2732.0
1479424215.8054569,558417,1479424215,805313119,,0.382999986410141,0.0,2724.75
1479424215.8170946,558418,1479424215,816941948,,0.382999986410141,0.0,2732.0
1479424215.8263247,558419,1479424215,826151478,,0.382999986410141,0.0,2732.0
1479424215.8367817,558420,1479424215,836623080,,0.382999986410141,0.0,2732.0
1479424215.8455567,558421,1479424215,845367640,,0.382999986410141,0.0,2739.5
1479424215.8570468,558422,1479424215,856880261,,0.382999986410141,0.0,2739.5
1479424215.8644748,558423,1479424215,864330372,,0.382999986410141,0.0,2717.25
1479424215.8767984,558424,1479424215,876624156,,0.382999986410141,0.0,2747.25
1479424215.8860545,558425,1479424215,885875958,,0.382999986410141,0.0,2747.25
1479424215.8983526,558426,1479424215,898070444,,0.382999986410141,0.0,2732.0
1479424215.9057844,558427,1479424215,905621111,,0.382999986410141,0.0,2710.0
1479424215.9175463,558428,1479424215,917362879,,0.382999986410141,0.0,2710.0
1479424215.9258006,558429,1479424215,925625415,,0.382999986410141,0.0,2710.0
1479424215.9368327,558430,1479424215,936619451,,0.382999986410141,0.0,2724.75
1479424215.9458666,558431,1479424215,945688553,,0.382999986410141,0.0,2724.75
1479424215.9565024,558432,1479424215,956331078,,0.382999986410141,0.0,2710.0
1479424215.9657888,558433,1479424215,965625736,,0.382999986410141,0.0,2702.5
1479424215.9767377,558434,1479424215,976541555,,0.382999986410141,0.0,2702.5
1479424215.9858105,558435,1479424215,985638188,,0.382999986410141,0.0,2739.5
1479424215.9980512,558436,1479424215,997790727,,0.3869999945163727,0.0,2702.5
1479424216.0059903,558437,1479424216,5801440,,0.3869999945163727,0.0,2702.5
1479424216.0171525,558438,1479424216,16967221,,0.3889999985694885,0.0,2717.25
1479424216.0246212,558439,1479424216,24473967,,0.39100000262260437,0.0,2724.75
1479424216.0371637,558440,1479424216,36987875,,0.39100000262260437,0.0,2724.75
1479424216.0456583,558441,1479424216,45403646,,0.3919999897480011,0.0,2702.5
1479424216.0565147,558442,1479424216,56325697,,0.39399999380111694,0.0,2724.75
1479424216.0658116,558443,1479424216,65654734,,0.39399999380111694,0.0,2724.75
1479424216.0764635,558444,1479424216,76282432,,0.39899998903274536,0.0,2710.0
1479424216.0857568,558445,1479424216,85614849,,0.40400001406669617,0.0,2710.0
1479424216.0982764,558446,1479424216,98042290,,0.40400001406669617,0.0,2710.0
1479424216.1057324,558447,1479424216,105531846,,0.40700000524520874,0.0,2710.0
1479424216.1172097,558448,1479424216,117034995,,0.4090000092983246,0.0,2702.5
1479424216.1258237,558449,1479424216,125688747,,0.4090000092983246,0.0,2702.5
1479424216.136832,558450,1479424216,136638369,,0.41100001335144043,0.0,2695.25
1479424216.1458883,558451,1479424216,145718614,,0.414000004529953,0.0,2710.0
1479424216.1569214,558452,1479424216,156792770,,0.414000004529953,0.0,2710.0
1479424216.1658106,558453,1479424216,165632456,,0.4180000126361847,0.0,2710.0
1479424216.1764812,558454,1479424216,176351038,,0.421999990940094,0.0,2702.5
1479424216.185876,558455,1479424216,185698867,,0.421999990940094,0.0,2702.5
1479424216.1981895,558456,1479424216,198055327,,0.4259999990463257,0.0,2739.5
1479424216.2055244,558457,1479424216,205363174,,0.4300000071525574,0.0,2710.0
1479424216.217436,558458,1479424216,217305642,,0.4300000071525574,0.0,2710.0
1479424216.2277741,558459,1479424216,227536885,,0.4320000112056732,0.0,2710.0
1479424216.2364228,558460,1479424216,236306282,,0.43299999833106995,0.0,2732.0
1479424216.246348,558461,1479424216,246183657,,0.43299999833106995,0.0,2732.0
1479424216.2566597,558462,1479424216,256530958,,0.43299999833106995,0.0,2702.5
1479424216.2647424,558463,1479424216,264616291,,0.4339999854564667,0.0,2747.25
1479424216.276917,558464,1479424216,276778802,,0.4339999854564667,0.0,2747.25
1479424216.2855678,558465,1479424216,285430962,,0.4339999854564667,0.0,2710.0
1479424216.2984204,558466,1479424216,298247114,,0.4339999854564667,0.0,2710.0
1479424216.3059487,558467,1479424216,305784479,,0.4339999854564667,0.0,2710.0
1479424216.3174167,558468,1479424216,317286837,,0.4339999854564667,0.0,2732.0
1479424216.325505,558469,1479424216,325362716,,0.4339999854564667,0.0,2732.0
1479424216.3368688,558470,1479424216,336740740,,0.4339999854564667,0.0,2732.0
1479424216.3447895,558471,1479424216,344617086,,0.4339999854564667,0.0,2732.0
1479424216.356741,558472,1479424216,356616766,,0.4339999854564667,0.0,2747.25
1479424216.3655417,558473,1479424216,365410882,,0.4339999854564667,0.0,2747.25
1479424216.376653,558474,1479424216,376512799,,0.4339999854564667,0.0,2724.75
1479424216.3845673,558475,1479424216,384459669,,0.4339999854564667,0.0,2739.5
1479424216.3983762,558476,1479424216,398231812,,0.4339999854564667,0.0,2739.5
1479424216.4054573,558477,1479424216,405317722,,0.4339999854564667,0.0,2754.75
1479424216.4174578,558478,1479424216,417304147,,0.4339999854564667,0.0,2732.0
1479424216.4255965,558479,1479424216,425473508,,0.4339999854564667,0.0,2732.0
1479424216.4366512,558480,1479424216,436509926,,0.4339999854564667,0.0,2762.25
1479424216.4454217,558481,1479424216,445293227,,0.4339999854564667,0.0,2747.25
1479424216.4569159,558482,1479424216,456778279,,0.4339999854564667,0.0,2747.25
1479424216.4645743,558483,1479424216,464464515,,0.4300000071525574,-0.00039999998989515007,2754.75
1479424216.476747,558484,1479424216,476614682,,0.42800000309944153,-0.00039999998989515007,2762.25
1479424216.4858158,558485,1479424216,485695303,,0.42800000309944153,-0.00039999998989515007,2762.25
1479424216.4981022,558486,1479424216,497929513,,0.42500001192092896,-0.00039999998989515007,2770.0
1479424216.5055523,558487,1479424216,505336862,,0.4230000078678131,-0.00039999998989515007,2762.25
1479424216.517553,558488,1479424216,517434157,,0.4230000078678131,-0.00039999998989515007,2762.25
1479424216.5255246,558489,1479424216,525391026,,0.4230000078678131,-0.00039999998989515007,2762.25
1479424216.536748,558490,1479424216,536632068,,0.4230000078678131,-0.00039999998989515007,2801.0
1479424216.5458107,558491,1479424216,545686038,,0.4230000078678131,-0.00039999998989515007,2801.0
1479424216.5565898,558492,1479424216,556484676,,0.4230000078678131,0.0,2793.25
1479424216.565477,558493,1479424216,565333910,,0.4230000078678131,0.0,2762.25
1479424216.5768778,558494,1479424216,576741572,,0.4230000078678131,0.0,2762.25
1479424216.584568,558495,1479424216,584460137,,0.4230000078678131,0.0,2762.25
1479424216.598152,558496,1479424216,597978479,,0.421999990940094,-0.00039999998989515007,2793.25
1479424216.6059725,558497,1479424216,605808216,,0.421999990940094,-0.00039999998989515007,2793.25
1479424216.6173308,558498,1479424216,617213421,,0.42100000381469727,-0.00039999998989515007,2777.75
1479424216.6245637,558499,1479424216,624445773,,0.4189999997615814,-0.00039999998989515007,2808.75
1479424216.6368601,558500,1479424216,636740752,,0.4189999997615814,-0.00039999998989515007,2808.75
1479424216.645435,558501,1479424216,645234812,,0.4169999957084656,-0.00039999998989515007,2785.5
1479424216.656598,558502,1479424216,656475490,,0.41600000858306885,-0.00039999998989515007,2762.25
1479424216.6656692,558503,1479424216,665538240,,0.41600000858306885,-0.00039999998989515007,2762.25
1479424216.6767597,558504,1479424216,676619910,,0.41499999165534973,-0.00039999998989515007,2785.5
1479424216.6853426,558505,1479424216,685222602,,0.41499999165534973,0.0,2762.25
1479424216.6982937,558506,1479424216,698156366,,0.41499999165534973,0.0,2762.25
1479424216.704552,558507,1479424216,704423116,,0.41499999165534973,0.0,2801.0
1479424216.7173846,558508,1479424216,717234396,,0.41499999165534973,0.0,2762.25
1479424216.725576,558509,1479424216,725438231,,0.41499999165534973,0.0,2762.25
1479424216.73674,558510,1479424216,736613095,,0.41499999165534973,0.0,2777.75
1479424216.7460356,558511,1479424216,745887192,,0.41499999165534973,0.0,2777.75
1479424216.7568328,558512,1479424216,756706095,,0.41499999165534973,0.0,2777.75
1479424216.7653768,558513,1479424216,765209269,,0.41499999165534973,-0.00039999998989515007,2762.25
1479424216.7766087,558514,1479424216,776483999,,0.41499999165534973,0.0,2770.0
1479424216.7856004,558515,1479424216,785435746,,0.41499999165534973,0.0,2770.0
1479424216.798138,558516,1479424216,797929563,,0.41499999165534973,0.0,2785.5
1479424216.805553,558517,1479424216,805390828,,0.41499999165534973,0.0,2754.75
1479424216.817564,558518,1479424216,817434546,,0.41499999165534973,0.0,2754.75
1479424216.8254926,558519,1479424216,825345553,,0.41499999165534973,0.0,2785.5
1479424216.8365946,558520,1479424216,836489562,,0.41499999165534973,0.0,2770.0
1479424216.8456523,558521,1479424216,845466793,,0.41499999165534973,0.0,2770.0
1479424216.8566124,558522,1479424216,856512340,,0.41499999165534973,0.0,2770.0
1479424216.866195,558523,1479424216,865996446,,0.41499999165534973,0.0,2770.0
1479424216.8769627,558524,1479424216,876828071,,0.41499999165534973,0.0,2770.0
1479424216.8853238,558525,1479424216,885160950,,0.4129999876022339,-0.00039999998989515007,2762.25
1479424216.8980782,558526,1479424216,897929591,,0.4090000092983246,-0.00039999998989515007,2777.75
1479424216.9058247,558527,1479424216,905639238,,0.4090000092983246,-0.00039999998989515007,2777.75
1479424216.9173257,558528,1479424216,917180489,,0.40299999713897705,-0.00039999998989515007,2762.25
1479424216.9272177,558529,1479424216,925217452,,0.3970000147819519,-0.0007999999797903001,2762.25
1479424216.9373713,558530,1479424216,937265973,,0.3970000147819519,-0.0007999999797903001,2762.25
1479424216.94475,558531,1479424216,944641873,,0.38999998569488525,-0.0007999999797903001,2770.0
1479424216.9566193,558532,1479424216,956492024,,0.38100001215934753,-0.0007999999797903001,2754.75
1479424216.9655929,558533,1479424216,965461797,,0.38100001215934753,-0.0007999999797903001,2754.75
1479424216.97686,558534,1479424216,976738634,,0.37299999594688416,-0.0007999999797903001,2747.25
1479424216.9847307,558535,1479424216,984616699,,0.367000013589859,-0.00039999998989515007,2777.75
1479424216.998442,558536,1479424216,998310604,,0.367000013589859,-0.00039999998989515007,2777.75
1479424217.0055132,558537,1479424217,5369076,,0.36399999260902405,-0.00039999998989515007,2762.25
1479424217.0166013,558538,1479424217,16464794,,0.3619999885559082,-0.00039999998989515007,2785.5
1479424217.0255654,558539,1479424217,25415259,,0.3619999885559082,-0.00039999998989515007,2785.5
1479424217.0365849,558540,1479424217,36461642,,0.3610000014305115,-0.00039999998989515007,2754.75
1479424217.045403,558541,1479424217,45196271,,0.3580000102519989,-0.00039999998989515007,2732.0
1479424217.0569563,558542,1479424217,56826824,,0.3580000102519989,-0.00039999998989515007,2732.0
1479424217.0647502,558543,1479424217,64622548,,0.35199999809265137,-0.00039999998989515007,2747.25
1479424217.0765996,558544,1479424217,76463165,,0.34200000762939453,-0.0007999999797903001,2747.25
1479424217.086037,558545,1479424217,85888702,,0.34200000762939453,-0.0007999999797903001,2747.25
1479424217.09809,558546,1479424217,97911423,,0.3330000042915344,-0.0007999999797903001,2732.0
1479424217.1045082,558547,1479424217,104367278,,0.3269999921321869,-0.0007999999797903001,2754.75
1479424217.1177578,558548,1479424217,117629210,,0.3269999921321869,-0.0007999999797903001,2754.75
1479424217.125841,558549,1479424217,125684763,,0.32100000977516174,-0.00039999998989515007,2717.25
1479424217.1366186,558550,1479424217,136483675,,0.3179999887943268,-0.00039999998989515007,2762.25
1479424217.1461225,558551,1479424217,145951480,,0.3179999887943268,-0.00039999998989515007,2762.25
1479424217.1566026,558552,1479424217,156463156,,0.31700000166893005,-0.00039999998989515007,2724.75
1479424217.1644917,558553,1479424217,164348930,,0.31700000166893005,-0.00039999998989515007,2732.0
1479424217.1771326,558554,1479424217,177013736,,0.31700000166893005,-0.00039999998989515007,2732.0
1479424217.1845255,558555,1479424217,184392097,,0.3160000145435333,-0.00039999998989515007,2724.75
1479424217.198021,558556,1479424217,197885680,,0.3160000145435333,-0.00039999998989515007,2724.75
1479424217.2059667,558557,1479424217,205825529,,0.3160000145435333,-0.00039999998989515007,2724.75
1479424217.2165928,558558,1479424217,216448635,,0.3160000145435333,0.0,2724.75
1479424217.2272584,558559,1479424217,225922431,,0.3160000145435333,0.0,2732.0
1479424217.2371666,558560,1479424217,237032122,,0.3160000145435333,0.0,2732.0
1479424217.2455232,558561,1479424217,245344480,,0.3160000145435333,-0.00039999998989515007,2702.5
1479424217.2565856,558562,1479424217,256442523,,0.3160000145435333,0.0,2702.5
1479424217.2655163,558563,1479424217,265385948,,0.3160000145435333,0.0,2702.5
1479424217.2767575,558564,1479424217,276632038,,0.3160000145435333,0.0,2724.75
1479424217.2854176,558565,1479424217,285287969,,0.3160000145435333,0.0,2680.75
1479424217.2982674,558566,1479424217,298109582,,0.3160000145435333,0.0,2680.75
1479424217.3045285,558567,1479424217,304403572,,0.3160000145435333,0.0,2702.5
1479424217.3165717,558568,1479424217,316415679,,0.3160000145435333,0.0,2702.5
1479424217.326101,558569,1479424217,325916371,,0.3160000145435333,0.0,2702.5
1479424217.3365989,558570,1479424217,336413849,,0.3160000145435333,0.0,2673.75
1479424217.3448105,558571,1479424217,344644856,,0.3160000145435333,0.0,2688.0
1479424217.3568256,558572,1479424217,356687638,,0.3160000145435333,0.0,2688.0
1479424217.3653803,558573,1479424217,365220264,,0.3160000145435333,0.0,2688.0
1479424217.3768215,558574,1479424217,376633980,,0.3160000145435333,0.0,2666.5
1479424217.3855567,558575,1479424217,385428150,,0.3160000145435333,0.0,2666.5
1479424217.3980296,558576,1479424217,397862916,,0.3160000145435333,0.0,2680.75
1479424217.4045615,558577,1479424217,404460672,,0.3190000057220459,0.0,2673.75
1479424217.4170246,558578,1479424217,416873886,,0.3190000057220459,0.0,2673.75
1479424217.4246035,558579,1479424217,424493959,,0.3230000138282776,0.0,2652.5
1479424217.436567,558580,1479424217,436431182,,0.3269999921321869,0.0,2666.5
1479424217.4457088,558581,1479424217,445464618,,0.3269999921321869,0.0,2666.5
1479424217.4565792,558582,1479424217,456386374,,0.33000001311302185,0.0,2666.5
1479424217.4658148,558583,1479424217,465662309,,0.3310000002384186,0.0,2652.5
1479424217.4768195,558584,1479424217,476663032,,0.3310000002384186,0.0,2652.5
1479424217.484598,558585,1479424217,484463571,,0.3319999873638153,0.0,2666.5
1479424217.4979784,558586,1479424217,497834740,,0.3319999873638153,0.0,2666.5
1479424217.506043,558587,1479424217,505877923,,0.3319999873638153,0.0,2666.5
1479424217.5165548,558588,1479424217,516410569,,0.3319999873638153,0.0,2645.5
1479424217.5254555,558589,1479424217,525324626,,0.3319999873638153,0.0,2659.5
1479424217.5370529,558590,1479424217,536887106,,0.3319999873638153,0.0,2659.5
1479424217.5456593,558591,1479424217,545482734,,0.3319999873638153,0.0,2652.5
1479424217.5565057,558592,1479424217,556367580,,0.3319999873638153,0.0,2631.5
1479424217.5655916,558593,1479424217,565451025,,0.3319999873638153,0.0,2631.5
1479424217.576567,558594,1479424217,576415855,,0.3319999873638153,0.0,2666.5
1479424217.5846062,558595,1479424217,584486428,,0.3319999873638153,0.0,2659.5
1479424217.5984662,558596,1479424217,598324027,,0.3319999873638153,0.0,2659.5
1479424217.604515,558597,1479424217,604392520,,0.3319999873638153,0.0,2624.5
1479424217.616541,558598,1479424217,616392906,,0.3319999873638153,0.0,2652.5
1479424217.6256707,558599,1479424217,625517906,,0.3319999873638153,0.0,2652.5
1479424217.6382518,558600,1479424217,636961908,,0.3319999873638153,0.0,2652.5
1479424217.6458745,558601,1479424217,645715419,,0.3319999873638153,0.0,2617.75
1479424217.656776,558602,1479424217,656631374,,0.3319999873638153,0.0,2617.75
1479424217.6645508,558603,1479424217,664429727,,0.3319999873638153,0.0,2638.5
1479424217.6767838,558604,1479424217,676631467,,0.3319999873638153,0.0,2645.5
1479424217.6857145,558605,1479424217,685615284,,0.3319999873638153,0.0,2645.5
1479424217.6979792,558606,1479424217,697854623,,0.3319999873638153,0.0,2610.75
1479424217.7045803,558607,1479424217,704460592,,0.3319999873638153,0.0,2604.0
1479424217.716992,558608,1479424217,716841634,,0.3319999873638153,0.0,2604.0
1479424217.7272167,558609,1479424217,725194716,,0.3319999873638153,0.0,2604.0
1479424217.7365553,558610,1479424217,736388531,,0.3319999873638153,0.0,2604.0
1479424217.7458515,558611,1479424217,745718997,,0.3319999873638153,0.0,2604.0
1479424217.7565472,558612,1479424217,756413203,,0.3319999873638153,0.0,2590.5
1479424217.7653937,558613,1479424217,765247444,,0.3319999873638153,0.0,2617.75
1479424217.776796,558614,1479424217,776643623,,0.3319999873638153,0.0,2617.75
1479424217.7845707,558615,1479424217,784459438,,0.3319999873638153,0.0,2590.5
1479424217.7979963,558616,1479424217,797790118,,0.3319999873638153,0.0,2557.5
1479424217.805575,558617,1479424217,805408868,,0.3319999873638153,0.0,2557.5
1479424217.8167498,558618,1479424217,816619164,,0.3319999873638153,0.0,2570.5
1479424217.82608,558619,1479424217,825886996,,0.3319999873638153,0.0,2597.25
1479424217.836996,558620,1479424217,836867499,,0.3319999873638153,0.0,2597.25
1479424217.845402,558621,1479424217,845261607,,0.3319999873638153,0.0,2583.75
1479424217.8565326,558622,1479424217,856372111,,0.3319999873638153,0.0,2577.25
1479424217.8656266,558623,1479424217,865489165,,0.3319999873638153,0.0,2577.25
1479424217.8765697,558624,1479424217,876371113,,0.3319999873638153,0.0,2570.5
1479424217.8854487,558625,1479424217,885266922,,0.3319999873638153,0.0,2577.25
1479424217.898873,558626,1479424217,898745394,,0.3319999873638153,0.0,2577.25
1479424217.9046009,558627,1479424217,904490786,,0.3319999873638153,0.0,2570.5
1479424217.9165773,558628,1479424217,916430264,,0.3319999873638153,0.0,2590.5
1479424217.9257007,558629,1479424217,925445834,,0.3319999873638153,0.0,2590.5
1479424217.9368522,558630,1479424217,936659670,,0.3319999873638153,0.0,2590.5
1479424217.94476,558631,1479424217,944660931,,0.3319999873638153,0.0,2557.5
1479424217.9567676,558632,1479424217,956632997,,0.3319999873638153,0.0,2557.5
1479424217.965847,558633,1479424217,965698231,,0.3319999873638153,0.0,2570.5
1479424217.976581,558634,1479424217,976432350,,0.3319999873638153,0.0,2577.25
1479424217.985583,558635,1479424217,985474808,,0.3319999873638153,0.0,2577.25
1479424217.9981868,558636,1479424217,998053058,,0.3319999873638153,0.0,2564.0
1479424218.004583,558637,1479424218,4471862,,0.3319999873638153,0.0,2577.25
1479424218.0168087,558638,1479424218,16687609,,0.3319999873638153,0.0,2577.25
1479424218.0245345,558639,1479424218,24410867,,0.3319999873638153,0.0,2557.5
1479424218.0370965,558640,1479424218,36964998,,0.3319999873638153,0.0,2570.5
1479424218.0457168,558641,1479424218,45493465,,0.3319999873638153,0.0,2570.5
1479424218.0565093,558642,1479424218,56350907,,0.3319999873638153,0.0,2570.5
1479424218.0645797,558643,1479424218,64461613,,0.3319999873638153,0.0,2557.5
1479424218.076754,558644,1479424218,76619919,,0.3319999873638153,0.0,2557.5
1479424218.0845964,558645,1479424218,84481846,,0.3319999873638153,0.0,2564.0
1479424218.098265,558646,1479424218,98051707,,0.3319999873638153,0.0,2564.0
1479424218.106051,558647,1479424218,105869699,,0.3319999873638153,0.0,2564.0
1479424218.1168575,558648,1479424218,116693540,,0.3319999873638153,0.0,2544.5
1479424218.1271317,558649,1479424218,124446861,,0.3319999873638153,0.0,2577.25
1479424218.1376133,558650,1479424218,137455236,,0.3319999873638153,0.0,2577.25
1479424218.1447577,558651,1479424218,144643872,,0.3319999873638153,0.0,2583.75
1479424218.15676,558652,1479424218,156618171,,0.3319999873638153,0.0,2564.0
1479424218.1655986,558653,1479424218,165452950,,0.3319999873638153,0.0,2564.0
1479424218.177086,558654,1479424218,176876678,,0.33399999141693115,0.0,2564.0
1479424218.1846006,558655,1479424218,184482305,,0.33799999952316284,0.0,2590.5
1479424218.198435,558656,1479424218,198295669,,0.33799999952316284,0.0,2590.5
1479424218.2055924,558657,1479424218,205417010,,0.34700000286102295,0.00039999998989515007,2564.0
1479424218.2168424,558658,1479424218,216697785,,0.35600000619888306,0.00039999998989515007,2564.0
1479424218.2256265,558659,1479424218,225464544,,0.35600000619888306,0.00039999998989515007,2564.0
1479424218.2371023,558660,1479424218,236965197,,0.3659999966621399,0.00039999998989515007,2551.0
1479424218.2454815,558661,1479424218,245263444,,0.37400001287460327,0.00039999998989515007,2570.5
1479424218.2569957,558662,1479424218,256844155,,0.37400001287460327,0.00039999998989515007,2570.5
1479424218.264629,558663,1479424218,264508081,,0.382999986410141,0.00039999998989515007,2577.25
1479424218.277005,558664,1479424218,276793586,,0.3919999897480011,0.00039999998989515007,2583.75
1479424218.2855835,558665,1479424218,285462012,,0.3919999897480011,0.00039999998989515007,2583.75
1479424218.298154,558666,1479424218,298010487,,0.39800000190734863,0.00039999998989515007,2577.25
1479424218.3045816,558667,1479424218,304459775,,0.40299999713897705,0.0,2577.25
1479424218.3170695,558668,1479424218,316912155,,0.40299999713897705,0.0,2577.25
1479424218.3254151,558669,1479424218,325251737,,0.4059999883174896,0.0,2557.5
1479424218.3371124,558670,1479424218,336964339,,0.4090000092983246,0.0,2564.0
1479424218.3461447,558671,1479424218,345989844,,0.4090000092983246,0.0,2564.0
1479424218.356702,558672,1479424218,356541756,,0.4099999964237213,0.0,2604.0
1479424218.3646338,558673,1479424218,364490568,,0.41200000047683716,0.0,2583.75
1479424218.3767707,558674,1479424218,376622731,,0.41200000047683716,0.0,2583.75
1479424218.3860178,558675,1479424218,385869656,,0.4129999876022339,0.0,2604.0
1479424218.3979576,558676,1479424218,397814733,,0.41499999165534973,0.0,2610.75
1479424218.4056604,558677,1479424218,405459531,,0.41499999165534973,0.0,2610.75
1479424218.416592,558678,1479424218,416412297,,0.4169999957084656,0.0,2604.0
1479424218.4245987,558679,1479424218,424484171,,0.4180000126361847,0.0,2624.5
1479424218.4373848,558680,1479424218,437211717,,0.4180000126361847,0.0,2624.5
1479424218.4447744,558681,1479424218,444684742,,0.4180000126361847,0.0,2645.5
1479424218.456509,558682,1479424218,456370837,,0.4180000126361847,0.0,2638.5
1479424218.466063,558683,1479424218,465910471,,0.4180000126361847,0.0,2638.5
1479424218.4767637,558684,1479424218,476616165,,0.4189999997615814,0.0,2638.5
1479424218.4846253,558685,1479424218,484508655,,0.4189999997615814,0.0,2631.5
1479424218.4981632,558686,1479424218,498030440,,0.4189999997615814,0.0,2631.5
1479424218.5056262,558687,1479424218,505433478,,0.4189999997615814,0.0,2659.5
1479424218.5166135,558688,1479424218,516439719,,0.4189999997615814,0.0,2666.5
1479424218.5256047,558689,1479424218,525432196,,0.4189999997615814,0.0,2666.5
1479424218.5368395,558690,1479424218,536688904,,0.4189999997615814,0.0,2666.5
1479424218.5458815,558691,1479424218,545704447,,0.4189999997615814,0.0,2680.75
1479424218.5567589,558692,1479424218,556619645,,0.4189999997615814,0.0,2680.75
1479424218.5645804,558693,1479424218,564461007,,0.4189999997615814,0.0,2688.0
1479424218.5765872,558694,1479424218,576411715,,0.4189999997615814,0.0,2688.0
1479424218.5856621,558695,1479424218,585492477,,0.4189999997615814,0.0,2688.0
1479424218.5981462,558696,1479424218,598007749,,0.4189999997615814,0.0,2702.5
1479424218.6045609,558697,1479424218,604458850,,0.4189999997615814,0.0,2695.25
1479424218.616851,558698,1479424218,616698929,,0.4189999997615814,0.0,2695.25
1479424218.624602,558699,1479424218,624484967,,0.4189999997615814,0.0,2710.0
1479424218.6367426,558700,1479424218,636614848,,0.4189999997615814,0.0,2710.0
1479424218.6463218,558701,1479424218,646165786,,0.4189999997615814,0.0,2710.0
1479424218.6564658,558702,1479424218,656328867,,0.41499999165534973,-0.00039999998989515007,2717.25
1479424218.6646135,558703,1479424218,664485792,,0.41100001335144043,-0.00039999998989515007,2739.5
1479424218.6768234,558704,1479424218,676635972,,0.41100001335144043,-0.00039999998989515007,2739.5
1479424218.6851583,558705,1479424218,684482225,,0.40700000524520874,-0.00039999998989515007,2717.25
1479424218.6979122,558706,1479424218,697775124,,0.40299999713897705,-0.00039999998989515007,2739.5
1479424218.7058518,558707,1479424218,705650845,,0.40299999713897705,-0.00039999998989515007,2739.5
1479424218.7166028,558708,1479424218,716453990,,0.4000000059604645,-0.00039999998989515007,2739.5
1479424218.7246115,558709,1479424218,724482972,,0.3970000147819519,-0.00039999998989515007,2724.75
1479424218.7369487,558710,1479424218,736793511,,0.3970000147819519,-0.00039999998989515007,2724.75
1479424218.7456675,558711,1479424218,745486387,,0.3959999978542328,-0.00039999998989515007,2717.25
1479424218.7568712,558712,1479424218,756688975,,0.39500001072883606,-0.00039999998989515007,2754.75
1479424218.765607,558713,1479424218,765483125,,0.39500001072883606,-0.00039999998989515007,2754.75
1479424218.7765234,558714,1479424218,776395284,,0.39500001072883606,-0.00039999998989515007,2732.0
1479424218.7846467,558715,1479424218,784508475,,0.39500001072883606,0.0,2739.5
1479424218.7981482,558716,1479424218,798011694,,0.39500001072883606,0.0,2739.5
1479424218.8045812,558717,1479424218,804481967,,0.39500001072883606,-0.00039999998989515007,2754.75
1479424218.8167973,558718,1479424218,816618325,,0.39500001072883606,0.0,2747.25
1479424218.8256207,558719,1479424218,825473533,,0.39500001072883606,0.0,2747.25
1479424218.8369963,558720,1479424218,836780973,,0.39500001072883606,0.0,2754.75
1479424218.8450003,558721,1479424218,844659985,,0.39500001072883606,0.0,2747.25
1479424218.856769,558722,1479424218,856623515,,0.39500001072883606,0.0,2747.25
1479424218.8646808,558723,1479424218,864508955,,0.39500001072883606,-0.00039999998989515007,2747.25
1479424218.876871,558724,1479424218,876692636,,0.39500001072883606,0.0,2739.5
1479424218.8857625,558725,1479424218,885629819,,0.39500001072883606,0.0,2739.5
1479424218.8979368,558726,1479424218,897813690,,0.39500001072883606,0.0,2739.5
1479424218.9047623,558727,1479424218,904487178,,0.39500001072883606,0.0,2732.0
1479424218.9168434,558728,1479424218,916697744,,0.39500001072883606,0.0,2732.0
1479424218.9246008,558729,1479424218,924483587,,0.39399999380111694,-0.00039999998989515007,2762.25
1479424218.9369266,558730,1479424218,936786188,,0.3930000066757202,-0.00039999998989515007,2732.0
1479424218.9457104,558731,1479424218,945526416,,0.3930000066757202,-0.00039999998989515007,2732.0
1479424218.9564972,558732,1479424218,956368852,,0.39100000262260437,-0.00039999998989515007,2762.25
1479424218.964591,558733,1479424218,964484841,,0.38999998569488525,-0.00039999998989515007,2732.0
1479424218.976792,558734,1479424218,976633518,,0.38999998569488525,-0.00039999998989515007,2732.0
1479424218.9860613,558735,1479424218,985918443,,0.3880000114440918,-0.00039999998989515007,2747.25
1479424218.9983833,558736,1479424218,998182290,,0.38600000739097595,-0.00039999998989515007,2747.25
1479424219.0057092,558737,1479424219,5430253,,0.38600000739097595,-0.00039999998989515007,2747.25
1479424219.0166397,558738,1479424219,16463763,,0.38499999046325684,-0.00039999998989515007,2739.5
1479424219.0247965,558739,1479424219,24688668,,0.3840000033378601,-0.00039999998989515007,2747.25
1479424219.036955,558740,1479424219,36788568,,0.3840000033378601,-0.00039999998989515007,2747.25
1479424219.0458994,558741,1479424219,45759724,,0.382999986410141,-0.00039999998989515007,2770.0
1479424219.0564806,558742,1479424219,56323733,,0.38199999928474426,-0.00039999998989515007,2724.75
1479424219.0655975,558743,1479424219,65466855,,0.38199999928474426,-0.00039999998989515007,2724.75
1479424219.0765734,558744,1479424219,76438048,,0.38100001215934753,-0.00039999998989515007,2747.25
1479424219.084583,558745,1479424219,84473420,,0.38100001215934753,0.0,2747.25
1479424219.0981581,558746,1479424219,98005854,,0.38100001215934753,0.0,2747.25
1479424219.1058953,558747,1479424219,105718013,,0.38100001215934753,0.0,2732.0
1479424219.1166208,558748,1479424219,116467371,,0.38100001215934753,0.0,2754.75
1479424219.1256511,558749,1479424219,125474541,,0.38100001215934753,0.0,2754.75
1479424219.1369321,558750,1479424219,136791988,,0.38100001215934753,0.0,2732.0
1479424219.1447966,558751,1479424219,144694937,,0.38100001215934753,0.0,2739.5
1479424219.1566718,558752,1479424219,156533675,,0.38100001215934753,0.0,2739.5
1479424219.165873,558753,1479424219,165698159,,0.38100001215934753,0.0,2739.5
1479424219.1765733,558754,1479424219,176429933,,0.38100001215934753,0.0,2747.25
1479424219.1857145,558755,1479424219,185550024,,0.38100001215934753,0.0,2747.25
1479424219.197911,558756,1479424219,197771418,,0.38100001215934753,0.0,2732.0
1479424219.2046165,558757,1479424219,204492552,,0.38100001215934753,0.0,2732.0
1479424219.2171059,558758,1479424219,216964454,,0.38100001215934753,0.0,2732.0
1479424219.228162,558759,1479424219,225974416,,0.38100001215934753,0.0,2747.25
1479424219.2369301,558760,1479424219,236767914,,0.38100001215934753,0.0,2762.25
1479424219.2457547,558761,1479424219,245486326,,0.38100001215934753,0.0,2762.25
1479424219.2565682,558762,1479424219,256419202,,0.38100001215934753,0.0,2724.75
1479424219.2646444,558763,1479424219,264528886,,0.38100001215934753,0.0,2724.75
1479424219.2769926,558764,1479424219,276825971,,0.38100001215934753,0.0,2724.75
1479424219.2845974,558765,1479424219,284483240,,0.38100001215934753,0.0,2732.0
1479424219.2979984,558766,1479424219,297862858,,0.38100001215934753,0.0,2732.0
1479424219.3055987,558767,1479424219,305468727,,0.38100001215934753,0.0,2732.0
1479424219.3166318,558768,1479424219,316475901,,0.38100001215934753,0.0,2732.0
1479424219.3247452,558769,1479424219,324620445,,0.38100001215934753,0.0,2754.75
1479424219.3373842,558770,1479424219,337215667,,0.38100001215934753,0.0,2754.75
1479424219.345597,558771,1479424219,345464134,,0.38100001215934753,0.0,2732.0
1479424219.3564181,558772,1479424219,356306721,,0.38100001215934753,0.0,2762.25
1479424219.3656187,558773,1479424219,365471037,,0.38100001215934753,0.0,2762.25
1479424219.3766894,558774,1479424219,376530064,,0.38100001215934753,0.0,2747.25
1479424219.3846853,558775,1479424219,384529880,,0.38100001215934753,0.0,2739.5
1479424219.3984132,558776,1479424219,398247690,,0.38100001215934753,0.0,2739.5
1479424219.40471,558777,1479424219,404534542,,0.38100001215934753,0.0,2732.0
1479424219.4165845,558778,1479424219,416463847,,0.38100001215934753,0.0,2732.0
1479424219.4249163,558779,1479424219,424787348,,0.38100001215934753,0.0,2732.0
1479424219.4369667,558780,1479424219,436817128,,0.38100001215934753,0.0,2717.25
1479424219.446456,558781,1479424219,446255325,,0.38100001215934753,0.0,2724.75
1479424219.45677,558782,1479424219,456629973,,0.38100001215934753,0.0,2724.75
1479424219.464631,558783,1479424219,464507489,,0.38100001215934753,0.0,2724.75
1479424219.4767935,558784,1479424219,476631430,,0.38100001215934753,0.0,2710.0
1479424219.4856665,558785,1479424219,485516255,,0.38100001215934753,0.0,2710.0
1479424219.4980671,558786,1479424219,497904407,,0.38100001215934753,0.0,2732.0
1479424219.504693,558787,1479424219,504551900,,0.38100001215934753,0.0,2702.5
1479424219.5168803,558788,1479424219,516707789,,0.38100001215934753,0.0,2702.5
1479424219.5245237,558789,1479424219,524409547,,0.38499999046325684,0.0,2747.25
1479424219.5369158,558790,1479424219,536745344,,0.38600000739097595,0.0,2710.0
1479424219.5463567,558791,1479424219,546201541,,0.38600000739097595,0.0,2710.0
1479424219.5568287,558792,1479424219,556706129,,0.38600000739097595,0.0,2717.25
1479424219.564646,558793,1479424219,564528447,,0.38600000739097595,0.0,2732.0
1479424219.5768752,558794,1479424219,576705788,,0.38600000739097595,0.0,2732.0
1479424219.5860791,558795,1479424219,585916429,,0.38600000739097595,0.0,2710.0
1479424219.5978842,558796,1479424219,597753717,,0.3869999945163727,0.0,2717.25
1479424219.6063206,558797,1479424219,606185829,,0.3869999945163727,0.0,2717.25
1479424219.616618,558798,1479424219,616453646,,0.3880000114440918,0.0,2724.75
1479424219.6246579,558799,1479424219,624526702,,0.38999998569488525,0.0,2717.25
1479424219.6371458,558800,1479424219,636994120,,0.38999998569488525,0.0,2717.25
1479424219.6458075,558801,1479424219,645659496,,0.39100000262260437,0.0,2732.0
1479424219.6567788,558802,1479424219,656644631,,0.3919999897480011,0.0,2732.0
1479424219.6663268,558803,1479424219,666178186,,0.3919999897480011,0.0,2732.0
1479424219.676806,558804,1479424219,676623081,,0.3919999897480011,0.0,2695.25
1479424219.6858761,558805,1479424219,685746658,,0.3919999897480011,0.0,2724.75
1479424219.698147,558806,1479424219,698020904,,0.3919999897480011,0.0,2724.75
1479424219.705886,558807,1479424219,705704398,,0.3919999897480011,0.0,2732.0
1479424219.7167814,558808,1479424219,716631000,,0.3919999897480011,0.0,2695.25
1479424219.7261584,558809,1479424219,725993913,,0.3919999897480011,0.0,2695.25
1479424219.7368417,558810,1479424219,736688115,,0.3930000066757202,0.0,2732.0
1479424219.7446523,558811,1479424219,744511938,,0.3930000066757202,0.0,2717.25
1479424219.7567608,558812,1479424219,756634157,,0.3930000066757202,0.0,2717.25
1479424219.766085,558813,1479424219,765929228,,0.3930000066757202,0.0,2717.25
1479424219.7766614,558814,1479424219,776519376,,0.3930000066757202,0.0,2724.75
1479424219.7856565,558815,1479424219,785509183,,0.3930000066757202,0.0,2724.75
1479424219.797964,558816,1479424219,797824142,,0.3930000066757202,0.0,2710.0
1479424219.804717,558817,1479424219,804515383,,0.3930000066757202,0.0,2710.0
1479424219.8169549,558818,1479424219,816779485,,0.3930000066757202,0.0,2710.0
1479424219.8258958,558819,1479424219,825751463,,0.3930000066757202,0.0,2717.25
1479424219.8368444,558820,1479424219,836697688,,0.3930000066757202,0.0,2710.0
1479424219.845928,558821,1479424219,845701493,,0.3930000066757202,0.0,2710.0
1479424219.8564553,558822,1479424219,856307034,,0.3930000066757202,0.0,2702.5
1479424219.866067,558823,1479424219,865920277,,0.3930000066757202,0.0,2717.25
1479424219.876938,558824,1479424219,876789118,,0.3930000066757202,0.0,2717.25
1479424219.8846483,558825,1479424219,884515845,,0.3930000066757202,0.0,2724.75
1479424219.8979335,558826,1479424219,897802856,,0.3930000066757202,0.0,2710.0
1479424219.9056902,558827,1479424219,905533526,,0.3930000066757202,0.0,2710.0
1479424219.9166112,558828,1479424219,916462924,,0.3930000066757202,0.0,2717.25
1479424219.925869,558829,1479424219,925708704,,0.3930000066757202,0.0,2724.75
1479424219.9371903,558830,1479424219,937057007,,0.3930000066757202,0.0,2724.75
1479424219.944741,558831,1479424219,944534843,,0.3930000066757202,0.0,2724.75
1479424219.9564059,558832,1479424219,956265127,,0.3930000066757202,0.0,2717.25
1479424219.9657903,558833,1479424219,965628064,,0.3930000066757202,0.0,2717.25
1479424219.9771671,558834,1479424219,976966234,,0.3930000066757202,0.0,2739.5
1479424219.9846447,558835,1479424219,984511868,,0.3930000066757202,0.0,2732.0
1479424219.998256,558836,1479424219,998135774,,0.3930000066757202,0.0,2732.0
1479424220.0046685,558837,1479424220,4509617,,0.3930000066757202,0.0,2717.25
1479424220.01646,558838,1479424220,16310427,,0.3930000066757202,0.0,2717.25
1479424220.0262637,558839,1479424220,26121883,,0.3930000066757202,0.0,2717.25
1479424220.0368485,558840,1479424220,36652587,,0.3930000066757202,0.0,2732.0
1479424220.044629,558841,1479424220,44509484,,0.3930000066757202,0.0,2724.75
1479424220.0568135,558842,1479424220,56628374,,0.3930000066757202,0.0,2724.75
1479424220.0644584,558843,1479424220,64338409,,0.3930000066757202,0.0,2717.25
1479424220.076576,558844,1479424220,76437328,,0.3930000066757202,0.0,2754.75
1479424220.086356,558845,1479424220,86166427,,0.3930000066757202,0.0,2754.75
1479424220.0979605,558846,1479424220,97803571,,0.3930000066757202,0.0,2732.0
1479424220.104667,558847,1479424220,104528792,,0.3930000066757202,0.0,2747.25
1479424220.1168008,558848,1479424220,116642797,,0.3930000066757202,0.0,2747.25
1479424220.1261451,558849,1479424220,126013086,,0.3930000066757202,0.0,2739.5
1479424220.136769,558850,1479424220,136647230,,0.3930000066757202,0.0,2739.5
1479424220.1459265,558851,1479424220,145784584,,0.3930000066757202,0.0,2739.5
1479424220.1567547,558852,1479424220,156632662,,0.3930000066757202,0.0,2739.5
1479424220.1646698,558853,1479424220,164526979,,0.3930000066757202,0.0,2732.0
1479424220.1769233,558854,1479424220,176780416,,0.3930000066757202,0.0,2732.0
1479424220.1846101,558855,1479424220,184484090,,0.3930000066757202,0.0,2717.25
1479424220.1983457,558856,1479424220,198181655,,0.3930000066757202,0.0,2739.5
1479424220.205676,558857,1479424220,205541078,,0.3930000066757202,0.0,2739.5
1479424220.2164826,558858,1479424220,216330179,,0.3930000066757202,0.0,2724.75
1479424220.2264864,558859,1479424220,226324664,,0.3930000066757202,0.0,2724.75
1479424220.2370367,558860,1479424220,236884169,,0.3930000066757202,0.0,2724.75
1479424220.2447903,558861,1479424220,244639181,,0.3930000066757202,0.0,2739.5
1479424220.2568512,558862,1479424220,256702093,,0.3930000066757202,0.0,2710.0
1479424220.265895,558863,1479424220,265749112,,0.3930000066757202,0.0,2710.0
1479424220.2765021,558864,1479424220,276324418,,0.3930000066757202,0.0,2754.75
1479424220.2848537,558865,1479424220,284714207,,0.3930000066757202,0.0,2717.25
1479424220.2981308,558866,1479424220,297988231,,0.3930000066757202,0.0,2717.25
1479424220.3061519,558867,1479424220,305992972,,0.3930000066757202,0.0,2732.0
1479424220.3164845,558868,1479424220,316326022,,0.3930000066757202,0.0,2724.75
1479424220.3265817,558869,1479424220,326473235,,0.3930000066757202,0.0,2724.75
1479424220.336992,558870,1479424220,336859243,,0.3930000066757202,0.0,2732.0
1479424220.3448596,558871,1479424220,344724288,,0.3930000066757202,0.0,2739.5
1479424220.356772,558872,1479424220,356625660,,0.3930000066757202,0.0,2739.5
1479424220.365907,558873,1479424220,365735803,,0.3930000066757202,0.0,2762.25
1479424220.376487,558874,1479424220,376350566,,0.3930000066757202,0.0,2724.75
1479424220.385678,558875,1479424220,385510980,,0.3930000066757202,0.0,2724.75
1479424220.398213,558876,1479424220,398036676,,0.3930000066757202,0.0,2754.75
1479424220.4047396,558877,1479424220,404615309,,0.3930000066757202,0.0,2747.25
1479424220.4171152,558878,1479424220,416974483,,0.3930000066757202,0.0,2747.25
1479424220.426869,558879,1479424220,426705161,,0.3930000066757202,0.0,2724.75
1479424220.4367514,558880,1479424220,436630334,,0.3930000066757202,0.0,2747.25
1479424220.4461172,558881,1479424220,445962340,,0.3930000066757202,0.0,2747.25
1479424220.4565682,558882,1479424220,456394179,,0.3930000066757202,0.0,2732.0
1479424220.4646528,558883,1479424220,464513005,,0.3930000066757202,0.0,2732.0
1479424220.4770925,558884,1479424220,476963132,,0.3930000066757202,0.0,2732.0
1479424220.4846942,558885,1479424220,484483585,,0.3930000066757202,0.0,2732.0
1479424220.4982686,558886,1479424220,498109123,,0.3930000066757202,0.0,2732.0
1479424220.505624,558887,1479424220,505493545,,0.3930000066757202,0.0,2732.0
1479424220.5164127,558888,1479424220,516279314,,0.3930000066757202,0.0,2724.75
1479424220.524638,558889,1479424220,524528714,,0.3930000066757202,0.0,2732.0
1479424220.5374727,558890,1479424220,537357665,,0.3930000066757202,0.0,2732.0
1479424220.5455818,558891,1479424220,545437803,,0.3930000066757202,0.0,2732.0
1479424220.5564148,558892,1479424220,556280840,,0.3930000066757202,0.0,2732.0
1479424220.5655947,558893,1479424220,565470228,,0.3930000066757202,0.0,2732.0
1479424220.5764534,558894,1479424220,576308548,,0.3930000066757202,0.0,2732.0
1479424220.5856616,558895,1479424220,585491471,,0.3930000066757202,0.0,2739.5
1479424220.5984192,558896,1479424220,598260200,,0.3930000066757202,0.0,2739.5
1479424220.605722,558897,1479424220,605489823,,0.3930000066757202,0.0,2739.5
1479424220.6167772,558898,1479424220,616621531,,0.3930000066757202,0.0,2717.25
1479424220.6255987,558899,1479424220,625465309,,0.3930000066757202,0.0,2717.25
1479424220.6371243,558900,1479424220,636993826,,0.3930000066757202,0.0,2710.0
1479424220.646116,558901,1479424220,645963706,,0.3930000066757202,0.0,2739.5
1479424220.6569648,558902,1479424220,656825684,,0.3930000066757202,0.0,2739.5
1479424220.6646223,558903,1479424220,664507724,,0.3930000066757202,0.0,2717.25
1479424220.6768734,558904,1479424220,676737499,,0.3930000066757202,0.0,2717.25
1479424220.685793,558905,1479424220,685653907,,0.3930000066757202,0.0,2717.25
1479424220.6984038,558906,1479424220,698254019,,0.3889999985694885,-0.00039999998989515007,2754.75
1479424220.704863,558907,1479424220,704632293,,0.3889999985694885,-0.00039999998989515007,2732.0
1479424220.717103,558908,1479424220,716922327,,0.3889999985694885,-0.00039999998989515007,2732.0
1479424220.724651,558909,1479424220,724535819,,0.3880000114440918,-0.00039999998989515007,2747.25
1479424220.7369676,558910,1479424220,736830281,,0.3869999945163727,-0.00039999998989515007,2754.75
1479424220.745794,558911,1479424220,745635334,,0.3869999945163727,-0.00039999998989515007,2754.75
1479424220.757179,558912,1479424220,757014791,,0.38499999046325684,-0.00039999998989515007,2747.25
1479424220.7646585,558913,1479424220,764527627,,0.382999986410141,-0.00039999998989515007,2754.75
1479424220.7769604,558914,1479424220,776831843,,0.382999986410141,-0.00039999998989515007,2754.75
1479424220.785662,558915,1479424220,784545194,,0.38100001215934753,-0.00039999998989515007,2732.0
1479424220.7980673,558916,1479424220,797958925,,0.3799999952316284,-0.00039999998989515007,2724.75
1479424220.8058858,558917,1479424220,805681659,,0.3799999952316284,-0.00039999998989515007,2724.75
1479424220.8167813,558918,1479424220,816622074,,0.3799999952316284,-0.00039999998989515007,2732.0
1479424220.824655,558919,1479424220,824534244,,0.3799999952316284,0.0,2724.75
1479424220.8368979,558920,1479424220,836779771,,0.3799999952316284,0.0,2724.75
1479424220.844824,558921,1479424220,844686675,,0.3799999952316284,0.0,2717.25
1479424220.8565397,558922,1479424220,856410075,,0.3799999952316284,0.0,2747.25
1479424220.8663397,558923,1479424220,866204042,,0.3799999952316284,0.0,2747.25
1479424220.876758,558924,1479424220,876632382,,0.3790000081062317,-0.00039999998989515007,2717.25
1479424220.8847942,558925,1479424220,884620613,,0.3790000081062317,-0.00039999998989515007,2754.75
1479424220.8981876,558926,1479424220,898060815,,0.3790000081062317,-0.00039999998989515007,2754.75
1479424220.9047978,558927,1479424220,904637788,,0.3779999911785126,-0.00039999998989515007,2724.75
1479424220.916631,558928,1479424220,916492051,,0.3779999911785126,0.0,2724.75
1479424220.9263947,558929,1479424220,926240638,,0.3779999911785126,0.0,2724.75
1479424220.9367523,558930,1479424220,936630347,,0.3779999911785126,-0.00039999998989515007,2732.0
1479424220.9448764,558931,1479424220,944698700,,0.3779999911785126,0.0,2732.0
1479424220.956673,558932,1479424220,956542569,,0.3779999911785126,0.0,2732.0
1479424220.9646347,558933,1479424220,964508515,,0.3779999911785126,0.0,2739.5
1479424220.976938,558934,1479424220,976791657,,0.3779999911785126,-0.00039999998989515007,2739.5
1479424220.9857545,558935,1479424220,985515098,,0.3779999911785126,-0.00039999998989515007,2739.5
1479424220.9981031,558936,1479424220,997973485,,0.37700000405311584,-0.00039999998989515007,2724.75
1479424221.0047445,558937,1479424221,4618704,,0.37700000405311584,-0.00039999998989515007,2732.0
1479424221.0167713,558938,1479424221,16617437,,0.37700000405311584,-0.00039999998989515007,2732.0
1479424221.0245984,558939,1479424221,24483309,,0.37700000405311584,-0.00039999998989515007,2747.25
1479424221.0367672,558940,1479424221,36631813,,0.37700000405311584,0.0,2710.0
1479424221.0456839,558941,1479424221,45516584,,0.37700000405311584,0.0,2710.0
1479424221.0565631,558942,1479424221,56409676,,0.37700000405311584,0.0,2747.25
1479424221.0647392,558943,1479424221,64614490,,0.37700000405311584,0.0,2724.75
1479424221.0769444,558944,1479424221,76823976,,0.37700000405311584,0.0,2724.75
1479424221.08608,558945,1479424221,85936140,,0.37700000405311584,0.0,2739.5
1479424221.0979404,558946,1479424221,97819380,,0.37700000405311584,0.0,2739.5
1479424221.1058745,558947,1479424221,105676709,,0.37700000405311584,0.0,2739.5
1479424221.1164565,558948,1479424221,116335902,,0.37700000405311584,0.0,2732.0
1479424221.1246367,558949,1479424221,124514725,,0.37700000405311584,0.0,2717.25
1479424221.1369169,558950,1479424221,136791435,,0.37700000405311584,0.0,2717.25
1479424221.1459198,558951,1479424221,145741488,,0.37700000405311584,0.0,2732.0
1479424221.156497,558952,1479424221,156353235,,0.37700000405311584,0.0,2739.5
1479424221.1656678,558953,1479424221,165513568,,0.37700000405311584,0.0,2739.5
1479424221.1765304,558954,1479424221,176396103,,0.37700000405311584,0.0,2717.25
1479424221.184623,558955,1479424221,184505341,,0.37700000405311584,0.0,2724.75
1479424221.1986609,558956,1479424221,198532177,,0.37700000405311584,0.0,2724.75
1479424221.2047634,558957,1479424221,204632450,,0.37700000405311584,0.0,2739.5
1479424221.2164896,558958,1479424221,216325597,,0.37700000405311584,0.0,2739.5
1479424221.225917,558959,1479424221,225748568,,0.37700000405311584,0.0,2739.5
1479424221.2366812,558960,1479424221,236518002,,0.37599998712539673,-0.00039999998989515007,2724.75
1479424221.2448924,558961,1479424221,244734470,,0.375,-0.00039999998989515007,2739.5
1479424221.2569866,558962,1479424221,256862301,,0.375,-0.00039999998989515007,2739.5
1479424221.264644,558963,1479424221,264516846,,0.3720000088214874,-0.00039999998989515007,2732.0
1479424221.2765746,558964,1479424221,276428091,,0.3700000047683716,-0.00039999998989515007,2710.0
1479424221.2856283,558965,1479424221,285485116,,0.3700000047683716,-0.00039999998989515007,2710.0
1479424221.2979848,558966,1479424221,297856618,,0.367000013589859,-0.00039999998989515007,2695.25
1479424221.3061717,558967,1479424221,305997046,,0.36399999260902405,-0.00039999998989515007,2739.5
1479424221.3167214,558968,1479424221,316535529,,0.36399999260902405,-0.00039999998989515007,2739.5
1479424221.3248475,558969,1479424221,324739004,,0.3619999885559082,-0.00039999998989515007,2717.25
1479424221.336681,558970,1479424221,336540243,,0.3610000014305115,-0.00039999998989515007,2695.25
1479424221.3456645,558971,1479424221,345528473,,0.3610000014305115,-0.00039999998989515007,2695.25
1479424221.3567655,558972,1479424221,356620723,,0.35899999737739563,-0.00039999998989515007,2747.25
1479424221.3646402,558973,1479424221,364527977,,0.3580000102519989,-0.00039999998989515007,2724.75
1479424221.3768883,558974,1479424221,376741012,,0.3580000102519989,-0.00039999998989515007,2724.75
1479424221.3846726,558975,1479424221,384513757,,0.3569999933242798,-0.00039999998989515007,2739.5
1479424221.3978593,558976,1479424221,397739840,,0.35600000619888306,-0.00039999998989515007,2717.25
1479424221.4057562,558977,1479424221,405616497,,0.35600000619888306,-0.00039999998989515007,2717.25
1479424221.4169605,558978,1479424221,416826442,,0.3540000021457672,-0.00039999998989515007,2717.25
1479424221.424866,558979,1479424221,424738634,,0.3529999852180481,-0.00039999998989515007,2717.25
1479424221.436931,558980,1479424221,436788115,,0.3529999852180481,-0.00039999998989515007,2717.25
1479424221.445644,558981,1479424221,445463155,,0.35199999809265137,-0.00039999998989515007,2710.0
1479424221.4564517,558982,1479424221,456290130,,0.35199999809265137,-0.00039999998989515007,2710.0
1479424221.4661937,558983,1479424221,466012471,,0.35199999809265137,-0.00039999998989515007,2710.0
1479424221.476474,558984,1479424221,476340779,,0.35199999809265137,0.0,2695.25
1479424221.4846895,558985,1479424221,484553940,,0.35199999809265137,0.0,2695.25
1479424221.4981515,558986,1479424221,498008343,,0.35199999809265137,0.0,2695.25
1479424221.5047274,558987,1479424221,504496558,,0.35199999809265137,0.0,2680.75
1479424221.5170202,558988,1479424221,516832185,,0.35100001096725464,-0.00039999998989515007,2702.5
1479424221.5256495,558989,1479424221,525485965,,0.35100001096725464,-0.00039999998989515007,2702.5
1479424221.536509,558990,1479424221,536368971,,0.3499999940395355,-0.00039999998989515007,2688.0
1479424221.544897,558991,1479424221,544762608,,0.3490000069141388,-0.00039999998989515007,2673.75
1479424221.556657,558992,1479424221,556517320,,0.3490000069141388,-0.00039999998989515007,2673.75
1479424221.5659165,558993,1479424221,565740071,,0.3490000069141388,-0.00039999998989515007,2695.25
1479424221.5764623,558994,1479424221,576337683,,0.3490000069141388,0.0,2688.0
1479424221.585633,558995,1479424221,585507471,,0.3490000069141388,0.0,2688.0
1479424221.5978408,558996,1479424221,597732509,,0.3490000069141388,0.0,2680.75
1479424221.6048076,558997,1479424221,604664162,,0.3479999899864197,-0.00039999998989515007,2688.0
1479424221.6172698,558998,1479424221,617091506,,0.3479999899864197,-0.00039999998989515007,2688.0
1479424221.6248271,558999,1479424221,624696207,,0.34700000286102295,-0.00039999998989515007,2645.5
1479424221.6365638,559000,1479424221,636437044,,0.3449999988079071,-0.00039999998989515007,2666.5
1479424221.645684,559001,1479424221,645512400,,0.3449999988079071,-0.00039999998989515007,2666.5
1479424221.6567311,559002,1479424221,656619253,,0.3440000116825104,-0.00039999998989515007,2680.75
1479424221.6646504,559003,1479424221,664527794,,0.34299999475479126,-0.00039999998989515007,2631.5
1479424221.6766694,559004,1479424221,676537397,,0.34299999475479126,-0.00039999998989515007,2631.5
1479424221.6846476,559005,1479424221,684535115,,0.34200000762939453,-0.00039999998989515007,2652.5
1479424221.6983018,559006,1479424221,698090807,,0.34200000762939453,-0.00039999998989515007,2666.5
1479424221.7057967,559007,1479424221,705615140,,0.34200000762939453,-0.00039999998989515007,2666.5
1479424221.7166462,559008,1479424221,716526857,,0.34200000762939453,-0.00039999998989515007,2645.5
1479424221.724875,559009,1479424221,724735907,,0.34200000762939453,0.0,2631.5
1479424221.7368164,559010,1479424221,736700259,,0.34200000762939453,0.0,2631.5
1479424221.7459397,559011,1479424221,745791858,,0.34200000762939453,0.0,2666.5
1479424221.756751,559012,1479424221,756625379,,0.34200000762939453,0.0,2638.5
1479424221.7647815,559013,1479424221,764630902,,0.34200000762939453,0.0,2638.5
1479424221.7764945,559014,1479424221,776331049,,0.34200000762939453,0.0,2624.5
1479424221.7861,559015,1479424221,785962125,,0.34200000762939453,0.0,2645.5
1479424221.7982805,559016,1479424221,798174475,,0.34200000762939453,0.0,2645.5
1479424221.8048198,559017,1479424221,804651980,,0.3479999899864197,0.0,2631.5
1479424221.816428,559018,1479424221,816285420,,0.3529999852180481,0.0,2624.5
1479424221.8261156,559019,1479424221,825955761,,0.3529999852180481,0.0,2624.5
1479424221.8366055,559020,1479424221,836429391,,0.36000001430511475,0.00039999998989515007,2624.5
1479424221.8448105,559021,1479424221,844711348,,0.36800000071525574,0.00039999998989515007,2624.5
1479424221.8569052,559022,1479424221,856768318,,0.36800000071525574,0.00039999998989515007,2624.5
1479424221.866127,559023,1479424221,865988810,,0.37599998712539673,0.00039999998989515007,2624.5
1479424221.8765137,559024,1479424221,876368362,,0.3840000033378601,0.00039999998989515007,2617.75
1479424221.8856852,559025,1479424221,885531098,,0.3840000033378601,0.00039999998989515007,2617.75
