Time,header.seq,header.stamp.secs,header.stamp.nsecs,header.frame_id,steering_wheel_angle,steering_wheel_angle_cmd,steering_wheel_torque,speed,enabled,override,driver,fault_wdc,fault_bus1,fault_bus2,fault_calibration,fault_connector
1479424214.7874527,278688,1479424214,787219361,,0.003490658476948738,0.0,0.125,22.880556106567383,False,False,False,False,False,False,False,True
1479424214.807333,278689,1479424214,807231859,,0.003490658476948738,0.0,0.125,22.886110305786133,False,False,False,False,False,False,False,True
1479424214.82744,278690,1479424214,827300730,,0.003490658476948738,0.0,0.125,22.891666412353516,False,False,False,False,False,False,False,True
1479424214.847458,278691,1479424214,847355643,,0.003490658476948738,0.0,0.1875,22.8972225189209,False,False,False,False,False,False,False,True
1479424214.8675082,278692,1479424214,867355824,,0.003490658476948738,0.0,0.0,22.90277862548828,False,False,False,False,False,False,False,True
1479424214.8874445,278693,1479424214,887364135,,0.003490658476948738,0.0,0.0625,22.905555725097656,False,False,False,False,False,False,False,True
1479424214.907509,278694,1479424214,907399816,,0.003490658476948738,0.0,0.25,22.90833282470703,False,False,False,False,False,False,False,True
1479424214.927609,278695,1479424214,927455132,,0.003490658476948738,0.0,-0.0625,22.91111183166504,False,False,False,False,False,False,False,True
1479424214.9476025,278696,1479424214,947476806,,0.001745329238474369,0.0,0.0,22.913888931274414,False,False,False,False,False,False,False,True
1479424214.9677992,278697,1479424214,967638631,,0.001745329238474369,0.0,-0.0625,22.913888931274414,False,False,False,False,False,False,False,True
1479424214.9877164,278698,1479424214,987608507,,0.001745329238474369,0.0,0.25,22.922222137451172,False,False,False,False,False,False,False,True
1479424215.007739,278699,1479424215,7651861,,0.001745329238474369,0.0,-0.0625,22.91666603088379,False,False,False,False,False,False,False,True
1479424215.0277946,278700,1479424215,27637427,,0.001745329238474369,0.0,0.125,22.91111183166504,False,False,False,False,False,False,False,True
1479424215.0477674,278701,1479424215,47670967,,0.001745329238474369,0.0,-0.1875,22.913888931274414,False,False,False,False,False,False,False,True
1479424215.0678096,278702,1479424215,67703294,,0.0,0.0,-0.125,22.913888931274414,False,False,False,False,False,False,False,True
1479424215.088006,278703,1479424215,87827569,,-0.003490658476948738,0.0,-0.25,22.91111183166504,False,False,False,False,False,False,False,True
1479424215.1081195,278704,1479424215,107787727,,-0.005235987715423107,0.0,-0.25,22.90833282470703,False,False,False,False,False,False,False,True
1479424215.128254,278705,1479424215,127809267,,-0.006981316953897476,0.0,-0.1875,22.91111183166504,False,False,False,False,False,False,False,True
1479424215.1483483,278706,1479424215,147880305,,-0.010471975430846214,0.0,-0.25,22.91111183166504,False,False,False,False,False,False,False,True
1479424215.1681147,278707,1479424215,167852446,,-0.010471975430846214,0.0,-0.1875,22.919445037841797,False,False,False,False,False,False,False,True
1479424215.1882548,278708,1479424215,187945498,,-0.010471975430846214,0.0,-0.25,22.924999237060547,False,False,False,False,False,False,False,True
1479424215.2083097,278709,1479424215,207962551,,-0.012217304669320583,0.0,-0.125,22.938888549804688,False,False,False,False,False,False,False,True
1479424215.228283,278710,1479424215,227994688,,-0.012217304669320583,0.0,-0.1875,22.947221755981445,False,False,False,False,False,False,False,True
1479424215.248375,278711,1479424215,248047727,,-0.012217304669320583,0.0,-0.1875,22.947221755981445,False,False,False,False,False,False,False,True
1479424215.2696426,278712,1479424215,268047655,,-0.013962633907794952,0.0,-0.1875,22.95833396911621,False,False,False,False,False,False,False,True
1479424215.2884064,278713,1479424215,288069542,,-0.013962633907794952,0.0,-0.375,22.97222137451172,False,False,False,False,False,False,False,True
1479424215.3084748,278714,1479424215,308153483,,-0.015707964077591896,0.0,-0.25,22.983333587646484,False,False,False,False,False,False,False,True
1479424215.328471,278715,1479424215,328163849,,-0.015707964077591896,0.0,-0.3125,22.98611068725586,False,False,False,False,False,False,False,True
1479424215.3484247,278716,1479424215,348160393,,-0.015707964077591896,0.0,0.0,22.994443893432617,False,False,False,False,False,False,False,True
1479424215.368487,278717,1479424215,368202474,,-0.015707964077591896,0.0,-0.125,23.0,False,False,False,False,False,False,False,True
1479424215.388499,278718,1479424215,388266825,,-0.015707964077591896,0.0,-0.375,22.994443893432617,False,False,False,False,False,False,False,True
1479424215.4085207,278719,1479424215,408293846,,-0.019198622554540634,0.0,-0.625,22.994443893432617,False,False,False,False,False,False,False,True
1479424215.4285684,278720,1479424215,428329197,,-0.022689281031489372,0.0,-0.4375,22.997222900390625,False,False,False,False,False,False,False,True
1479424215.448571,278721,1479424215,448359436,,-0.02617993950843811,0.0,-0.3125,23.002777099609375,False,False,False,False,False,False,False,True
1479424215.4686458,278722,1479424215,468401919,,-0.027925267815589905,0.0,-0.375,22.994443893432617,False,False,False,False,False,False,False,True
1479424215.4888144,278723,1479424215,488393291,,-0.027925267815589905,0.0,0.0,22.988889694213867,False,False,False,False,False,False,False,True
1479424215.5086675,278724,1479424215,508435095,,-0.02617993950843811,0.0,0.1875,22.98055648803711,False,False,False,False,False,False,False,True
1479424215.528758,278725,1479424215,528481355,,-0.02094395086169243,0.0,0.1875,22.975000381469727,False,False,False,False,False,False,False,True
1479424215.5487652,278726,1479424215,548521625,,-0.019198622554540634,0.0,0.1875,22.96666717529297,False,False,False,False,False,False,False,True
1479424215.5688398,278727,1479424215,568535561,,-0.015707964077591896,0.0,0.0625,22.952777862548828,False,False,False,False,False,False,False,True
1479424215.5888407,278728,1479424215,588641437,,-0.015707964077591896,0.0,0.0,22.955554962158203,False,False,False,False,False,False,False,True
1479424215.6088614,278729,1479424215,608644417,,-0.01745329238474369,0.0,-0.125,22.950000762939453,False,False,False,False,False,False,False,True
1479424215.6288304,278730,1479424215,628648434,,-0.019198622554540634,0.0,-0.375,22.947221755981445,False,False,False,False,False,False,False,True
1479424215.648898,278731,1479424215,648694646,,-0.02094395086169243,0.0,-0.375,22.94444465637207,False,False,False,False,False,False,False,True
1479424215.6689827,278732,1479424215,668700580,,-0.02094395086169243,0.0,-0.25,22.955554962158203,False,False,False,False,False,False,False,True
1479424215.6889284,278733,1479424215,688745678,,-0.022689281031489372,0.0,-0.3125,22.961111068725586,False,False,False,False,False,False,False,True
1479424215.70905,278734,1479424215,708789380,,-0.022689281031489372,0.0,-0.3125,22.95833396911621,False,False,False,False,False,False,False,True
1479424215.7290525,278735,1479424215,728834102,,-0.022689281031489372,0.0,-0.1875,22.96388816833496,False,False,False,False,False,False,False,True
1479424215.7491574,278736,1479424215,748838217,,-0.022689281031489372,0.0,-0.1875,22.96666717529297,False,False,False,False,False,False,False,True
1479424215.769126,278737,1479424215,768875547,,-0.022689281031489372,0.0,-0.0625,22.98055648803711,False,False,False,False,False,False,False,True
1479424215.7891386,278738,1479424215,788910794,,-0.02094395086169243,0.0,0.375,22.98055648803711,False,False,False,False,False,False,False,True
1479424215.8091476,278739,1479424215,808970155,,-0.015707964077591896,0.0,0.5625,22.98611068725586,False,False,False,False,False,False,False,True
1479424215.8291454,278740,1479424215,828969752,,-0.010471975430846214,0.0,0.4375,22.991666793823242,False,False,False,False,False,False,False,True
1479424215.8492043,278741,1479424215,849020144,,-0.003490658476948738,0.0,0.4375,23.0,False,False,False,False,False,False,False,True
1479424215.8692977,278742,1479424215,869060453,,0.0,0.0,0.375,23.002777099609375,False,False,False,False,False,False,False,True
1479424215.8892891,278743,1479424215,889078254,,0.001745329238474369,0.0,0.375,23.005556106567383,False,False,False,False,False,False,False,True
1479424215.9092765,278744,1479424215,909100030,,0.003490658476948738,0.0,0.4375,23.011110305786133,False,False,False,False,False,False,False,True
1479424215.9293475,278745,1479424215,929149299,,0.003490658476948738,0.0,0.375,23.005556106567383,False,False,False,False,False,False,False,True
1479424215.9493911,278746,1479424215,949184948,,0.003490658476948738,0.0,0.3125,23.011110305786133,False,False,False,False,False,False,False,True
1479424215.9694517,278747,1479424215,969247840,,0.003490658476948738,0.0,0.375,23.008333206176758,False,False,False,False,False,False,False,True
1479424215.9894514,278748,1479424215,989267254,,0.003490658476948738,0.0,0.3125,23.008333206176758,False,False,False,False,False,False,False,True
1479424216.0094993,278749,1479424216,9308940,,0.003490658476948738,0.0,0.4375,23.008333206176758,False,False,False,False,False,False,False,True
1479424216.029527,278750,1479424216,29312603,,0.005235987715423107,0.0,0.5,23.005556106567383,False,False,False,False,False,False,False,True
1479424216.049536,278751,1479424216,49350273,,0.005235987715423107,0.0,0.375,23.0,False,False,False,False,False,False,False,True
1479424216.069583,278752,1479424216,69399492,,0.005235987715423107,0.0,0.5,22.994443893432617,False,False,False,False,False,False,False,True
1479424216.089601,278753,1479424216,89395275,,0.006981316953897476,0.0,0.625,23.008333206176758,False,False,False,False,False,False,False,True
1479424216.1096623,278754,1479424216,109446692,,0.008726646192371845,0.0,0.625,23.01388931274414,False,False,False,False,False,False,False,True
1479424216.129806,278755,1479424216,129491752,,0.013962633907794952,0.0,0.75,23.016666412353516,False,False,False,False,False,False,False,True
1479424216.149789,278756,1479424216,149619950,,0.019198622554540634,0.0,0.625,23.005556106567383,False,False,False,False,False,False,False,True
1479424216.169793,278757,1479424216,169631248,,0.02094395086169243,0.0,0.6875,23.011110305786133,False,False,False,False,False,False,False,True
1479424216.1897807,278758,1479424216,189638029,,0.02617993950843811,0.0,0.625,23.01388931274414,False,False,False,False,False,False,False,True
1479424216.2097983,278759,1479424216,209633261,,0.02967059798538685,0.0,0.75,23.0222225189209,False,False,False,False,False,False,False,True
1479424216.2298496,278760,1479424216,229689083,,0.03316125646233559,0.0,0.5625,23.01944351196289,False,False,False,False,False,False,False,True
1479424216.2498953,278761,1479424216,249704897,,0.03316125646233559,0.0,0.5625,23.011110305786133,False,False,False,False,False,False,False,True
1479424216.2698765,278762,1479424216,269704167,,0.03316125646233559,0.0,0.4375,23.01388931274414,False,False,False,False,False,False,False,True
1479424216.2898934,278763,1479424216,289735342,,0.03141592815518379,0.0,0.1875,23.01944351196289,False,False,False,False,False,False,False,True
1479424216.3099408,278764,1479424216,309785583,,0.03141592815518379,0.0,0.25,23.03333282470703,False,False,False,False,False,False,False,True
1479424216.329982,278765,1479424216,329826038,,0.02967059798538685,0.0,0.1875,23.03333282470703,False,False,False,False,False,False,False,True
1479424216.3500488,278766,1479424216,349887951,,0.027925267815589905,0.0,0.1875,23.038888931274414,False,False,False,False,False,False,False,True
1479424216.370057,278767,1479424216,369910793,,0.027925267815589905,0.0,0.1875,23.044445037841797,False,False,False,False,False,False,False,True
1479424216.39009,278768,1479424216,389933506,,0.027925267815589905,0.0,0.25,23.058332443237305,False,False,False,False,False,False,False,True
1479424216.4101267,278769,1479424216,409964821,,0.027925267815589905,0.0,0.375,23.072221755981445,False,False,False,False,False,False,False,True
1479424216.4301848,278770,1479424216,430012623,,0.027925267815589905,0.0,0.5625,23.077777862548828,False,False,False,False,False,False,False,True
1479424216.4502058,278771,1479424216,450016768,,0.02967059798538685,0.0,0.625,23.09166717529297,False,False,False,False,False,False,False,True
1479424216.470257,278772,1479424216,470074902,,0.03141592815518379,0.0,0.625,23.09722137451172,False,False,False,False,False,False,False,True
1479424216.4903014,278773,1479424216,490124518,,0.03490658476948738,0.0,0.625,23.10555648803711,False,False,False,False,False,False,False,True
1479424216.5103333,278774,1479424216,510141445,,0.036651913076639175,0.0,0.5625,23.100000381469727,False,False,False,False,False,False,False,True
1479424216.5304594,278775,1479424216,530307364,,0.036651913076639175,0.0,0.5625,23.094444274902344,False,False,False,False,False,False,False,True
1479424216.550393,278776,1479424216,550242152,,0.03490658476948738,0.0,0.375,23.094444274902344,False,False,False,False,False,False,False,True
1479424216.5704846,278777,1479424216,570270099,,0.03490658476948738,0.0,0.3125,23.100000381469727,False,False,False,False,False,False,False,True
1479424216.5904229,278778,1479424216,590277828,,0.03316125646233559,0.0,0.25,23.1027774810791,False,False,False,False,False,False,False,True
1479424216.6104808,278779,1479424216,610321234,,0.03316125646233559,0.0,0.3125,23.094444274902344,False,False,False,False,False,False,False,True
1479424216.6305187,278780,1479424216,630350956,,0.03316125646233559,0.0,0.375,23.094444274902344,False,False,False,False,False,False,False,True
1479424216.650527,278781,1479424216,650366546,,0.03316125646233559,0.0,0.25,23.086111068725586,False,False,False,False,False,False,False,True
1479424216.6706553,278782,1479424216,670432722,,0.03316125646233559,0.0,0.1875,23.09166717529297,False,False,False,False,False,False,False,True
1479424216.6905985,278783,1479424216,690437404,,0.03316125646233559,0.0,0.125,23.086111068725586,False,False,False,False,False,False,False,True
1479424216.7106268,278784,1479424216,710464304,,0.03316125646233559,0.0,0.1875,23.080554962158203,False,False,False,False,False,False,False,True
1479424216.730665,278785,1479424216,730486027,,0.03141592815518379,0.0,0.0,23.075000762939453,False,False,False,False,False,False,False,True
1479424216.7507489,278786,1479424216,750534925,,0.027925267815589905,0.0,0.125,23.075000762939453,False,False,False,False,False,False,False,True
1479424216.7708037,278787,1479424216,770620822,,0.027925267815589905,0.0,0.125,23.072221755981445,False,False,False,False,False,False,False,True
1479424216.7908642,278788,1479424216,790690542,,0.02617993950843811,0.0,-0.0625,23.061111450195312,False,False,False,False,False,False,False,True
1479424216.8108366,278789,1479424216,810659401,,0.02617993950843811,0.0,-0.125,23.061111450195312,False,False,False,False,False,False,False,True
1479424216.8308508,278790,1479424216,830689732,,0.024434609338641167,0.0,-0.0625,23.066667556762695,False,False,False,False,False,False,False,True
1479424216.8509305,278791,1479424216,850735348,,0.02094395086169243,0.0,-0.0625,23.077777862548828,False,False,False,False,False,False,False,True
1479424216.8709562,278792,1479424216,870743224,,0.019198622554540634,0.0,-0.1875,23.077777862548828,False,False,False,False,False,False,False,True
1479424216.8911698,278793,1479424216,890937991,,0.013962633907794952,0.0,-0.0625,23.08888816833496,False,False,False,False,False,False,False,True
1479424216.9109814,278794,1479424216,910787885,,0.010471975430846214,0.0,-0.125,23.09722137451172,False,False,False,False,False,False,False,True
1479424216.9310048,278795,1479424216,930838660,,0.006981316953897476,0.0,0.125,23.119443893432617,False,False,False,False,False,False,False,True
1479424216.951064,278796,1479424216,950872043,,0.006981316953897476,0.0,0.1875,23.13888931274414,False,False,False,False,False,False,False,True
1479424216.9711115,278797,1479424216,970913216,,0.006981316953897476,0.0,0.125,23.133333206176758,False,False,False,False,False,False,False,True
1479424216.9913218,278798,1479424216,991164699,,0.006981316953897476,0.0,0.375,23.141666412353516,False,False,False,False,False,False,False,True
1479424217.0113943,278799,1479424217,11241879,,0.006981316953897476,0.0,0.4375,23.149999618530273,False,False,False,False,False,False,False,True
1479424217.031277,278800,1479424217,30989486,,0.006981316953897476,0.0,0.5625,23.16666603088379,False,False,False,False,False,False,False,True
1479424217.0512617,278801,1479424217,51056249,,0.010471975430846214,0.0,0.875,23.174999237060547,False,False,False,False,False,False,False,True
1479424217.071285,278802,1479424217,71099544,,0.015707964077591896,0.0,0.6875,23.169445037841797,False,False,False,False,False,False,False,True
1479424217.0913374,278803,1479424217,91185030,,0.015707964077591896,0.0,0.625,23.169445037841797,False,False,False,False,False,False,False,True
1479424217.111311,278804,1479424217,111137840,,0.01745329238474369,0.0,0.5625,23.172222137451172,False,False,False,False,False,False,False,True
1479424217.1313922,278805,1479424217,131184649,,0.019198622554540634,0.0,0.5625,23.183332443237305,False,False,False,False,False,False,False,True
1479424217.1513765,278806,1479424217,151233618,,0.019198622554540634,0.0,0.5625,23.177778244018555,False,False,False,False,False,False,False,True
1479424217.1713953,278807,1479424217,171244565,,0.01745329238474369,0.0,0.4375,23.177778244018555,False,False,False,False,False,False,False,True
1479424217.1915765,278808,1479424217,191411445,,0.01745329238474369,0.0,0.25,23.174999237060547,False,False,False,False,False,False,False,True
1479424217.211459,278809,1479424217,211304356,,0.015707964077591896,0.0,0.375,23.183332443237305,False,False,False,False,False,False,False,True
1479424217.2315671,278810,1479424217,231355198,,0.015707964077591896,0.0,0.375,23.191667556762695,False,False,False,False,False,False,False,True
1479424217.2516122,278811,1479424217,251442582,,0.01745329238474369,0.0,0.5625,23.18055534362793,False,False,False,False,False,False,False,True
1479424217.2715907,278812,1479424217,271411548,,0.01745329238474369,0.0,0.4375,23.172222137451172,False,False,False,False,False,False,False,True
1479424217.2917988,278813,1479424217,291620313,,0.015707964077591896,0.0,0.5,23.177778244018555,False,False,False,False,False,False,False,True
1479424217.311672,278814,1479424217,311518861,,0.019198622554540634,0.0,0.5,23.18055534362793,False,False,False,False,False,False,False,True
1479424217.3316736,278815,1479424217,331513194,,0.019198622554540634,0.0,0.375,23.174999237060547,False,False,False,False,False,False,False,True
1479424217.3517683,278816,1479424217,351617633,,0.01745329238474369,0.0,0.5,23.163888931274414,False,False,False,False,False,False,False,True
1479424217.3718083,278817,1479424217,371632512,,0.01745329238474369,0.0,0.3125,23.155555725097656,False,False,False,False,False,False,False,True
1479424217.3918552,278818,1479424217,391646466,,0.01745329238474369,0.0,0.25,23.16111183166504,False,False,False,False,False,False,False,True
1479424217.4118178,278819,1479424217,411660458,,0.01745329238474369,0.0,0.375,23.149999618530273,False,False,False,False,False,False,False,True
1479424217.4318871,278820,1479424217,431691314,,0.01745329238474369,0.0,0.25,23.14444351196289,False,False,False,False,False,False,False,True
1479424217.4519012,278821,1479424217,451737036,,0.015707964077591896,0.0,0.3125,23.141666412353516,False,False,False,False,False,False,False,True
1479424217.4719167,278822,1479424217,471747981,,0.01745329238474369,0.0,0.3125,23.141666412353516,False,False,False,False,False,False,False,True
1479424217.4921074,278823,1479424217,491790629,,0.01745329238474369,0.0,0.0,23.133333206176758,False,False,False,False,False,False,False,True
1479424217.5119894,278824,1479424217,511822270,,0.015707964077591896,0.0,0.25,23.122222900390625,False,False,False,False,False,False,False,True
1479424217.5320475,278825,1479424217,531869713,,0.015707964077591896,0.0,0.3125,23.119443893432617,False,False,False,False,False,False,False,True
1479424217.5520692,278826,1479424217,551910975,,0.015707964077591896,0.0,0.0625,23.113889694213867,False,False,False,False,False,False,False,True
1479424217.5720906,278827,1479424217,571911375,,0.015707964077591896,0.0,0.125,23.10555648803711,False,False,False,False,False,False,False,True
1479424217.59214,278828,1479424217,591965133,,0.015707964077591896,0.0,0.1875,23.1027774810791,False,False,False,False,False,False,False,True
1479424217.6121666,278829,1479424217,612007922,,0.013962633907794952,0.0,0.25,23.108333587646484,False,False,False,False,False,False,False,True
1479424217.6322165,278830,1479424217,632020055,,0.013962633907794952,0.0,0.25,23.11111068725586,False,False,False,False,False,False,False,True
1479424217.6523018,278831,1479424217,652055732,,0.013962633907794952,0.0,0.4375,23.11111068725586,False,False,False,False,False,False,False,True
1479424217.6722498,278832,1479424217,672074251,,0.015707964077591896,0.0,0.375,23.11111068725586,False,False,False,False,False,False,False,True
1479424217.6922612,278833,1479424217,692118240,,0.015707964077591896,0.0,0.4375,23.10555648803711,False,False,False,False,False,False,False,True
1479424217.7123165,278834,1479424217,712164214,,0.013962633907794952,0.0,0.375,23.10555648803711,False,False,False,False,False,False,False,True
1479424217.7324116,278835,1479424217,732227511,,0.013962633907794952,0.0,0.4375,23.1027774810791,False,False,False,False,False,False,False,True
1479424217.7523887,278836,1479424217,752225213,,0.013962633907794952,0.0,0.375,23.108333587646484,False,False,False,False,False,False,False,True
1479424217.7724335,278837,1479424217,772283138,,0.013962633907794952,0.0,0.3125,23.100000381469727,False,False,False,False,False,False,False,True
1479424217.79244,278838,1479424217,792284694,,0.013962633907794952,0.0,0.1875,23.09722137451172,False,False,False,False,False,False,False,True
1479424217.8125114,278839,1479424217,812330330,,0.013962633907794952,0.0,0.625,23.1027774810791,False,False,False,False,False,False,False,True
1479424217.8325517,278840,1479424217,832369519,,0.013962633907794952,0.0,0.5625,23.1027774810791,False,False,False,False,False,False,False,True
1479424217.8526256,278841,1479424217,852408788,,0.013962633907794952,0.0,0.0625,23.11111068725586,False,False,False,False,False,False,False,True
1479424217.872579,278842,1479424217,872415816,,0.012217304669320583,0.0,0.4375,23.11111068725586,False,False,False,False,False,False,False,True
1479424217.892626,278843,1479424217,892471913,,0.012217304669320583,0.0,0.4375,23.116666793823242,False,False,False,False,False,False,False,True
1479424217.912652,278844,1479424217,912473175,,0.012217304669320583,0.0,0.0625,23.119443893432617,False,False,False,False,False,False,False,True
1479424217.9326618,278845,1479424217,932514618,,0.010471975430846214,0.0,0.25,23.130556106567383,False,False,False,False,False,False,False,True
1479424217.9527907,278846,1479424217,952614585,,0.010471975430846214,0.0,0.5,23.127777099609375,False,False,False,False,False,False,False,True
1479424217.9727871,278847,1479424217,972617753,,0.010471975430846214,0.0,0.4375,23.125,False,False,False,False,False,False,False,True
1479424217.9928737,278848,1479424217,992661007,,0.012217304669320583,0.0,0.5,23.119443893432617,False,False,False,False,False,False,False,True
1479424218.0128589,278849,1479424218,12686851,,0.012217304669320583,0.0,0.4375,23.113889694213867,False,False,False,False,False,False,False,True
1479424218.0328865,278850,1479424218,32711015,,0.012217304669320583,0.0,0.375,23.10555648803711,False,False,False,False,False,False,False,True
1479424218.0529547,278851,1479424218,52752610,,0.010471975430846214,0.0,0.1875,23.09722137451172,False,False,False,False,False,False,False,True
1479424218.0729682,278852,1479424218,72803458,,0.010471975430846214,0.0,0.125,23.09166717529297,False,False,False,False,False,False,False,True
1479424218.093153,278853,1479424218,93008853,,0.008726646192371845,0.0,-0.125,23.077777862548828,False,False,False,False,False,False,False,True
1479424218.1131873,278854,1479424218,113035543,,0.008726646192371845,0.0,0.25,23.08333396911621,False,False,False,False,False,False,False,True
1479424218.13315,278855,1479424218,133008699,,0.008726646192371845,0.0,0.25,23.075000762939453,False,False,False,False,False,False,False,True
1479424218.1532464,278856,1479424218,153034155,,0.008726646192371845,0.0,0.125,23.063888549804688,False,False,False,False,False,False,False,True
1479424218.1731825,278857,1479424218,173032829,,0.008726646192371845,0.0,0.25,23.061111450195312,False,False,False,False,False,False,False,True
1479424218.1931999,278858,1479424218,193051728,,0.008726646192371845,0.0,0.4375,23.063888549804688,False,False,False,False,False,False,False,True
1479424218.2131133,278859,1479424218,212983458,,0.008726646192371845,0.0,0.375,23.066667556762695,False,False,False,False,False,False,False,True
1479424218.233275,278860,1479424218,233085798,,0.012217304669320583,0.0,0.625,23.066667556762695,False,False,False,False,False,False,False,True
1479424218.2532063,278861,1479424218,253062026,,0.013962633907794952,0.0,0.8125,23.066667556762695,False,False,False,False,False,False,False,True
1479424218.273284,278862,1479424218,273106195,,0.019198622554540634,0.0,0.5625,23.063888549804688,False,False,False,False,False,False,False,True
1479424218.2933247,278863,1479424218,293140989,,0.02094395086169243,0.0,0.9375,23.077777862548828,False,False,False,False,False,False,False,True
1479424218.313339,278864,1479424218,313173640,,0.027925267815589905,0.0,0.75,23.072221755981445,False,False,False,False,False,False,False,True
1479424218.3333707,278865,1479424218,333198359,,0.03141592815518379,0.0,0.75,23.072221755981445,False,False,False,False,False,False,False,True
1479424218.3533843,278866,1479424218,353255057,,0.03141592815518379,0.0,0.8125,23.075000762939453,False,False,False,False,False,False,False,True
1479424218.3734436,278867,1479424218,373280314,,0.03316125646233559,0.0,0.8125,23.077777862548828,False,False,False,False,False,False,False,True
1479424218.3934767,278868,1479424218,393309115,,0.03490658476948738,0.0,0.625,23.077777862548828,False,False,False,False,False,False,False,True
1479424218.413484,278869,1479424218,413335526,,0.03490658476948738,0.0,0.5625,23.075000762939453,False,False,False,False,False,False,False,True
1479424218.4335134,278870,1479424218,433356251,,0.03316125646233559,0.0,0.5,23.075000762939453,False,False,False,False,False,False,False,True
1479424218.4535258,278871,1479424218,453391893,,0.03316125646233559,0.0,0.375,23.072221755981445,False,False,False,False,False,False,False,True
1479424218.473607,278872,1479424218,473431388,,0.03316125646233559,0.0,0.375,23.072221755981445,False,False,False,False,False,False,False,True
1479424218.4936159,278873,1479424218,493486318,,0.03141592815518379,0.0,0.25,23.066667556762695,False,False,False,False,False,False,False,True
1479424218.5136435,278874,1479424218,513486407,,0.02967059798538685,0.0,0.1875,23.063888549804688,False,False,False,False,False,False,False,True
1479424218.5336702,278875,1479424218,533529491,,0.027925267815589905,0.0,0.0,23.061111450195312,False,False,False,False,False,False,False,True
1479424218.5537815,278876,1479424218,553628837,,0.02617993950843811,0.0,-0.125,23.058332443237305,False,False,False,False,False,False,False,True
1479424218.5738308,278877,1479424218,573632143,,0.024434609338641167,0.0,-0.25,23.058332443237305,False,False,False,False,False,False,False,True
1479424218.5939412,278878,1479424218,593655579,,0.02094395086169243,0.0,-0.25,23.052778244018555,False,False,False,False,False,False,False,True
1479424218.6138623,278879,1479424218,613695556,,0.015707964077591896,0.0,-0.1875,23.058332443237305,False,False,False,False,False,False,False,True
1479424218.6338618,278880,1479424218,633705415,,0.012217304669320583,0.0,-0.375,23.058332443237305,False,False,False,False,False,False,False,True
1479424218.653926,278881,1479424218,653761111,,0.008726646192371845,0.0,-0.0625,23.063888549804688,False,False,False,False,False,False,False,True
1479424218.6739378,278882,1479424218,673791740,,0.006981316953897476,0.0,-0.1875,23.063888549804688,False,False,False,False,False,False,False,True
1479424218.6939864,278883,1479424218,693827920,,0.006981316953897476,0.0,-0.0625,23.066667556762695,False,False,False,False,False,False,False,True
1479424218.7140222,278884,1479424218,713872153,,0.006981316953897476,0.0,0.0,23.06944465637207,False,False,False,False,False,False,False,True
1479424218.7343817,278885,1479424218,734164521,,0.006981316953897476,0.0,0.3125,23.075000762939453,False,False,False,False,False,False,False,True
1479424218.754323,278886,1479424218,754174959,,0.008726646192371845,0.0,0.375,23.077777862548828,False,False,False,False,False,False,False,True
1479424218.774301,278887,1479424218,774141667,,0.010471975430846214,0.0,0.5625,23.072221755981445,False,False,False,False,False,False,False,True
1479424218.7943296,278888,1479424218,794137177,,0.013962633907794952,0.0,0.6875,23.075000762939453,False,False,False,False,False,False,False,True
1479424218.8141634,278889,1479424218,814009594,,0.01745329238474369,0.0,0.5,23.075000762939453,False,False,False,False,False,False,False,True
1479424218.8343673,278890,1479424218,834172836,,0.02094395086169243,0.0,0.5625,23.075000762939453,False,False,False,False,False,False,False,True
1479424218.854275,278891,1479424218,854093338,,0.02094395086169243,0.0,0.5,23.075000762939453,False,False,False,False,False,False,False,True
1479424218.874254,278892,1479424218,874105972,,0.022689281031489372,0.0,0.5,23.077777862548828,False,False,False,False,False,False,False,True
1479424218.8943357,278893,1479424218,894186662,,0.022689281031489372,0.0,0.5,23.080554962158203,False,False,False,False,False,False,False,True
1479424218.9144855,278894,1479424218,914322773,,0.022689281031489372,0.0,0.375,23.08888816833496,False,False,False,False,False,False,False,True
1479424218.9344146,278895,1479424218,934263045,,0.022689281031489372,0.0,0.25,23.09722137451172,False,False,False,False,False,False,False,True
1479424218.9544365,278896,1479424218,954292786,,0.02094395086169243,0.0,0.3125,23.094444274902344,False,False,False,False,False,False,False,True
1479424218.9744287,278897,1479424218,974277885,,0.019198622554540634,0.0,0.375,23.10555648803711,False,False,False,False,False,False,False,True
1479424218.9945064,278898,1479424218,994320822,,0.019198622554540634,0.0,0.5625,23.116666793823242,False,False,False,False,False,False,False,True
1479424219.0145142,278899,1479424219,14383877,,0.019198622554540634,0.0,0.625,23.127777099609375,False,False,False,False,False,False,False,True
1479424219.0346563,278900,1479424219,34446698,,0.02094395086169243,0.0,0.6875,23.127777099609375,False,False,False,False,False,False,False,True
1479424219.054634,278901,1479424219,54455410,,0.022689281031489372,0.0,0.625,23.130556106567383,False,False,False,False,False,False,False,True
1479424219.0746126,278902,1479424219,74462364,,0.022689281031489372,0.0,0.625,23.133333206176758,False,False,False,False,False,False,False,True
1479424219.0946398,278903,1479424219,94510621,,0.024434609338641167,0.0,0.625,23.141666412353516,False,False,False,False,False,False,False,True
1479424219.114653,278904,1479424219,114509967,,0.024434609338641167,0.0,0.6875,23.149999618530273,False,False,False,False,False,False,False,True
1479424219.1347823,278905,1479424219,134622088,,0.024434609338641167,0.0,0.75,23.15277862548828,False,False,False,False,False,False,False,True
1479424219.1548033,278906,1479424219,154652419,,0.024434609338641167,0.0,0.625,23.15277862548828,False,False,False,False,False,False,False,True
1479424219.174777,278907,1479424219,174615937,,0.02617993950843811,0.0,0.6875,23.1472225189209,False,False,False,False,False,False,False,True
1479424219.1948445,278908,1479424219,194710338,,0.02617993950843811,0.0,0.5625,23.1472225189209,False,False,False,False,False,False,False,True
1479424219.2148423,278909,1479424219,214684908,,0.02617993950843811,0.0,0.5625,23.149999618530273,False,False,False,False,False,False,False,True
1479424219.2348938,278910,1479424219,234738695,,0.02617993950843811,0.0,0.5,23.149999618530273,False,False,False,False,False,False,False,True
1479424219.2550435,278911,1479424219,254802425,,0.02617993950843811,0.0,0.5,23.14444351196289,False,False,False,False,False,False,False,True
1479424219.2749531,278912,1479424219,274789515,,0.02617993950843811,0.0,0.3125,23.14444351196289,False,False,False,False,False,False,False,True
1479424219.295002,278913,1479424219,294855257,,0.02617993950843811,0.0,0.375,23.149999618530273,False,False,False,False,False,False,False,True
1479424219.3150594,278914,1479424219,314886482,,0.02617993950843811,0.0,0.4375,23.149999618530273,False,False,False,False,False,False,False,True
1479424219.3351142,278915,1479424219,334909530,,0.02617993950843811,0.0,0.4375,23.155555725097656,False,False,False,False,False,False,False,True
1479424219.3551123,278916,1479424219,354947349,,0.02617993950843811,0.0,0.5,23.15833282470703,False,False,False,False,False,False,False,True
1479424219.375121,278917,1479424219,374960592,,0.02617993950843811,0.0,0.5625,23.16666603088379,False,False,False,False,False,False,False,True
1479424219.3951852,278918,1479424219,395008297,,0.02617993950843811,0.0,0.625,23.16666603088379,False,False,False,False,False,False,False,True
1479424219.4152212,278919,1479424219,415048238,,0.027925267815589905,0.0,0.6875,23.169445037841797,False,False,False,False,False,False,False,True
1479424219.435348,278920,1479424219,435116978,,0.027925267815589905,0.0,0.75,23.172222137451172,False,False,False,False,False,False,False,True
1479424219.455297,278921,1479424219,455097010,,0.02967059798538685,0.0,0.6875,23.172222137451172,False,False,False,False,False,False,False,True
1479424219.4753118,278922,1479424219,475135562,,0.02967059798538685,0.0,0.625,23.172222137451172,False,False,False,False,False,False,False,True
1479424219.495392,278923,1479424219,495139279,,0.02967059798538685,0.0,0.625,23.16111183166504,False,False,False,False,False,False,False,True
1479424219.5153496,278924,1479424219,515183865,,0.02967059798538685,0.0,0.5625,23.16666603088379,False,False,False,False,False,False,False,True
1479424219.5355568,278925,1479424219,535252865,,0.02967059798538685,0.0,0.875,23.172222137451172,False,False,False,False,False,False,False,True
1479424219.5554867,278926,1479424219,555284614,,0.03141592815518379,0.0,0.75,23.174999237060547,False,False,False,False,False,False,False,True
1479424219.575491,278927,1479424219,575314116,,0.03316125646233559,0.0,0.75,23.169445037841797,False,False,False,False,False,False,False,True
1479424219.5955343,278928,1479424219,595367798,,0.03316125646233559,0.0,0.625,23.16666603088379,False,False,False,False,False,False,False,True
1479424219.6155932,278929,1479424219,615360694,,0.03316125646233559,0.0,0.6875,23.172222137451172,False,False,False,False,False,False,False,True
1479424219.6355846,278930,1479424219,635390188,,0.03316125646233559,0.0,0.6875,23.172222137451172,False,False,False,False,False,False,False,True
1479424219.6556942,278931,1479424219,655471374,,0.03316125646233559,0.0,0.75,23.177778244018555,False,False,False,False,False,False,False,True
1479424219.6757078,278932,1479424219,675461347,,0.03316125646233559,0.0,0.8125,23.169445037841797,False,False,False,False,False,False,False,True
1479424219.6957822,278933,1479424219,695535973,,0.03490658476948738,0.0,0.8125,23.172222137451172,False,False,False,False,False,False,False,True
1479424219.7158349,278934,1479424219,715632333,,0.03839724510908127,0.0,0.875,23.169445037841797,False,False,False,False,False,False,False,True
1479424219.7358518,278935,1479424219,735636069,,0.03839724510908127,0.0,0.6875,23.169445037841797,False,False,False,False,False,False,False,True
1479424219.7559192,278936,1479424219,755693977,,0.03839724510908127,0.0,0.8125,23.16666603088379,False,False,False,False,False,False,False,True
1479424219.7758243,278937,1479424219,775654103,,0.03839724510908127,0.0,0.6875,23.169445037841797,False,False,False,False,False,False,False,True
1479424219.7958913,278938,1479424219,795730875,,0.03839724510908127,0.0,0.5625,23.16666603088379,False,False,False,False,False,False,False,True
1479424219.8158731,278939,1479424219,815687058,,0.03839724510908127,0.0,0.625,23.163888931274414,False,False,False,False,False,False,False,True
1479424219.8359509,278940,1479424219,835739017,,0.03839724510908127,0.0,0.625,23.16111183166504,False,False,False,False,False,False,False,True
1479424219.8560016,278941,1479424219,855792019,,0.03839724510908127,0.0,0.5625,23.149999618530273,False,False,False,False,False,False,False,True
1479424219.8760438,278942,1479424219,875827850,,0.03839724510908127,0.0,0.4375,23.149999618530273,False,False,False,False,False,False,False,True
1479424219.8960574,278943,1479424219,895840387,,0.03839724510908127,0.0,0.5625,23.149999618530273,False,False,False,False,False,False,False,True
1479424219.9160464,278944,1479424219,915868538,,0.03839724510908127,0.0,0.5,23.15277862548828,False,False,False,False,False,False,False,True
1479424219.9361353,278945,1479424219,935922851,,0.03839724510908127,0.0,0.4375,23.1472225189209,False,False,False,False,False,False,False,True
1479424219.956196,278946,1479424219,955964905,,0.03839724510908127,0.0,0.25,23.141666412353516,False,False,False,False,False,False,False,True
1479424219.9761481,278947,1479424219,975965468,,0.036651913076639175,0.0,0.1875,23.141666412353516,False,False,False,False,False,False,False,True
1479424219.9962611,278948,1479424219,996052893,,0.03490658476948738,0.0,0.0625,23.1472225189209,False,False,False,False,False,False,False,True
1479424220.0162659,278949,1479424220,16079502,,0.03141592815518379,0.0,0.125,23.15833282470703,False,False,False,False,False,False,False,True
1479424220.0362816,278950,1479424220,36101117,,0.03141592815518379,0.0,0.0625,23.16111183166504,False,False,False,False,False,False,False,True
1479424220.056352,278951,1479424220,56181201,,0.02967059798538685,0.0,0.0,23.16666603088379,False,False,False,False,False,False,False,True
1479424220.076324,278952,1479424220,76158903,,0.027925267815589905,0.0,0.125,23.169445037841797,False,False,False,False,False,False,False,True
1479424220.0963511,278953,1479424220,96198553,,0.027925267815589905,0.0,0.125,23.183332443237305,False,False,False,False,False,False,False,True
1479424220.1164343,278954,1479424220,116234844,,0.027925267815589905,0.0,0.1875,23.188888549804688,False,False,False,False,False,False,False,True
1479424220.1364071,278955,1479424220,136239817,,0.027925267815589905,0.0,0.25,23.188888549804688,False,False,False,False,False,False,False,True
1479424220.1564605,278956,1479424220,156282080,,0.027925267815589905,0.0,0.25,23.191667556762695,False,False,False,False,False,False,False,True
1479424220.1765263,278957,1479424220,176324573,,0.02967059798538685,0.0,0.3125,23.191667556762695,False,False,False,False,False,False,False,True
1479424220.1965442,278958,1479424220,196370134,,0.02967059798538685,0.0,0.25,23.197221755981445,False,False,False,False,False,False,False,True
1479424220.2167718,278959,1479424220,216630724,,0.027925267815589905,0.0,0.1875,23.188888549804688,False,False,False,False,False,False,False,True
1479424220.2366526,278960,1479424220,236469336,,0.027925267815589905,0.0,0.0625,23.186111450195312,False,False,False,False,False,False,False,True
1479424220.2566497,278961,1479424220,256455775,,0.027925267815589905,0.0,0.0,23.177778244018555,False,False,False,False,False,False,False,True
1479424220.276989,278962,1479424220,276777903,,0.027925267815589905,0.0,-0.125,23.172222137451172,False,False,False,False,False,False,False,True
1479424220.2967548,278963,1479424220,296553499,,0.024434609338641167,0.0,-0.25,23.169445037841797,False,False,False,False,False,False,False,True
1479424220.316794,278964,1479424220,316630429,,0.019198622554540634,0.0,-0.125,23.172222137451172,False,False,False,False,False,False,False,True
1479424220.336772,278965,1479424220,336622579,,0.015707964077591896,0.0,-0.125,23.172222137451172,False,False,False,False,False,False,False,True
1479424220.3569834,278966,1479424220,356811440,,0.012217304669320583,0.0,-0.25,23.172222137451172,False,False,False,False,False,False,False,True
1479424220.3770366,278967,1479424220,376823781,,0.008726646192371845,0.0,-0.25,23.172222137451172,False,False,False,False,False,False,False,True
1479424220.3968477,278968,1479424220,396688749,,0.005235987715423107,0.0,-0.125,23.172222137451172,False,False,False,False,False,False,False,True
1479424220.4169555,278969,1479424220,416738567,,0.003490658476948738,0.0,-0.25,23.18055534362793,False,False,False,False,False,False,False,True
1479424220.4370694,278970,1479424220,436902779,,0.001745329238474369,0.0,0.0625,23.183332443237305,False,False,False,False,False,False,False,True
1479424220.4569879,278971,1479424220,456780104,,0.001745329238474369,0.0,0.125,23.19444465637207,False,False,False,False,False,False,False,True
1479424220.477593,278972,1479424220,477462060,,0.001745329238474369,0.0,0.375,23.197221755981445,False,False,False,False,False,False,False,True
1479424220.4970152,278973,1479424220,496875223,,0.003490658476948738,0.0,0.4375,23.200000762939453,False,False,False,False,False,False,False,True
1479424220.5170708,278974,1479424220,516909987,,0.005235987715423107,0.0,0.5,23.200000762939453,False,False,False,False,False,False,False,True
1479424220.5370839,278975,1479424220,536917732,,0.006981316953897476,0.0,0.3125,23.200000762939453,False,False,False,False,False,False,False,True
1479424220.5571244,278976,1479424220,556963550,,0.006981316953897476,0.0,0.5,23.205554962158203,False,False,False,False,False,False,False,True
1479424220.5771978,278977,1479424220,576986870,,0.008726646192371845,0.0,0.4375,23.205554962158203,False,False,False,False,False,False,False,True
1479424220.5972548,278978,1479424220,597057379,,0.008726646192371845,0.0,0.3125,23.205554962158203,False,False,False,False,False,False,False,True
1479424220.6172736,278979,1479424220,617058514,,0.008726646192371845,0.0,0.4375,23.211111068725586,False,False,False,False,False,False,False,True
1479424220.6374152,278980,1479424220,637285381,,0.008726646192371845,0.0,0.625,23.21388816833496,False,False,False,False,False,False,False,True
1479424220.6573105,278981,1479424220,657141176,,0.010471975430846214,0.0,0.4375,23.211111068725586,False,False,False,False,False,False,False,True
1479424220.6773472,278982,1479424220,677199183,,0.010471975430846214,0.0,0.4375,23.202777862548828,False,False,False,False,False,False,False,True
1479424220.6973786,278983,1479424220,697214701,,0.010471975430846214,0.0,0.375,23.202777862548828,False,False,False,False,False,False,False,True
1479424220.7174165,278984,1479424220,717242611,,0.010471975430846214,0.0,0.375,23.20833396911621,False,False,False,False,False,False,False,True
1479424220.7374105,278985,1479424220,737278529,,0.010471975430846214,0.0,0.4375,23.20833396911621,False,False,False,False,False,False,False,True
1479424220.7574434,278986,1479424220,757288143,,0.012217304669320583,0.0,0.5625,23.205554962158203,False,False,False,False,False,False,False,True
1479424220.7775028,278987,1479424220,777337494,,0.012217304669320583,0.0,0.4375,23.202777862548828,False,False,False,False,False,False,False,True
1479424220.79753,278988,1479424220,797367939,,0.012217304669320583,0.0,0.375,23.200000762939453,False,False,False,False,False,False,False,True
1479424220.8175404,278989,1479424220,817393443,,0.012217304669320583,0.0,0.3125,23.205554962158203,False,False,False,False,False,False,False,True
1479424220.8375418,278990,1479424220,837410755,,0.012217304669320583,0.0,0.25,23.211111068725586,False,False,False,False,False,False,False,True
1479424220.857652,278991,1479424220,857475253,,0.012217304669320583,0.0,0.25,23.21388816833496,False,False,False,False,False,False,False,True
1479424220.8776588,278992,1479424220,877513353,,0.012217304669320583,0.0,0.25,23.21388816833496,False,False,False,False,False,False,False,True
1479424220.897693,278993,1479424220,897533938,,0.010471975430846214,0.0,0.0625,23.21388816833496,False,False,False,False,False,False,False,True
1479424220.9177809,278994,1479424220,917621953,,0.010471975430846214,0.0,0.125,23.22222137451172,False,False,False,False,False,False,False,True
1479424220.9377859,278995,1479424220,937631108,,0.010471975430846214,0.0,0.1875,23.225000381469727,False,False,False,False,False,False,False,True
1479424220.957812,278996,1479424220,957643416,,0.010471975430846214,0.0,0.0625,23.2277774810791,False,False,False,False,False,False,False,True
1479424220.9778645,278997,1479424220,977696394,,0.008726646192371845,0.0,0.25,23.23055648803711,False,False,False,False,False,False,False,True
1479424220.9979265,278998,1479424220,997729751,,0.008726646192371845,0.0,0.3125,23.23611068725586,False,False,False,False,False,False,False,True
1479424221.0179417,278999,1479424221,17769729,,0.008726646192371845,0.0,0.3125,23.23611068725586,False,False,False,False,False,False,False,True
1479424221.0382187,279000,1479424221,38056548,,0.008726646192371845,0.0,0.1875,23.23055648803711,False,False,False,False,False,False,False,True
1479424221.057961,279001,1479424221,57811755,,0.008726646192371845,0.0,0.375,23.233333587646484,False,False,False,False,False,False,False,True
1479424221.0780022,279002,1479424221,77850402,,0.008726646192371845,0.0,0.25,23.23611068725586,False,False,False,False,False,False,False,True
1479424221.0981658,279003,1479424221,98051865,,0.006981316953897476,0.0,0.25,23.23055648803711,False,False,False,False,False,False,False,True
1479424221.1180875,279004,1479424221,117916099,,0.006981316953897476,0.0,0.3125,23.22222137451172,False,False,False,False,False,False,False,True
1479424221.138108,279005,1479424221,137962000,,0.006981316953897476,0.0,0.3125,23.21666717529297,False,False,False,False,False,False,False,True
1479424221.1581244,279006,1479424221,157984492,,0.006981316953897476,0.0,0.375,23.219444274902344,False,False,False,False,False,False,False,True
1479424221.1782205,279007,1479424221,178028894,,0.006981316953897476,0.0,0.3125,23.21388816833496,False,False,False,False,False,False,False,True
1479424221.1982653,279008,1479424221,198049628,,0.006981316953897476,0.0,0.1875,23.211111068725586,False,False,False,False,False,False,False,True
1479424221.218267,279009,1479424221,218097856,,0.006981316953897476,0.0,0.0625,23.205554962158203,False,False,False,False,False,False,False,True
1479424221.238232,279010,1479424221,238097702,,0.006981316953897476,0.0,0.125,23.20833396911621,False,False,False,False,False,False,False,True
1479424221.258273,279011,1479424221,258139014,,0.006981316953897476,0.0,0.125,23.21388816833496,False,False,False,False,False,False,False,True
1479424221.278338,279012,1479424221,278184514,,0.006981316953897476,0.0,0.1875,23.21388816833496,False,False,False,False,False,False,False,True
1479424221.2983878,279013,1479424221,298250474,,0.006981316953897476,0.0,0.125,23.21388816833496,False,False,False,False,False,False,False,True
1479424221.3184173,279014,1479424221,318260293,,0.006981316953897476,0.0,0.0,23.21666717529297,False,False,False,False,False,False,False,True
1479424221.3384442,279015,1479424221,338301966,,0.006981316953897476,0.0,0.0,23.225000381469727,False,False,False,False,False,False,False,True
1479424221.3584452,279016,1479424221,358302745,,0.005235987715423107,0.0,0.0625,23.23055648803711,False,False,False,False,False,False,False,True
1479424221.3785222,279017,1479424221,378358328,,0.005235987715423107,0.0,0.125,23.2277774810791,False,False,False,False,False,False,False,True
1479424221.3985078,279018,1479424221,398383452,,0.005235987715423107,0.0,0.0625,23.2277774810791,False,False,False,False,False,False,False,True
1479424221.418593,279019,1479424221,418434564,,0.005235987715423107,0.0,0.125,23.225000381469727,False,False,False,False,False,False,False,True
1479424221.438588,279020,1479424221,438459478,,0.005235987715423107,0.0,0.0625,23.225000381469727,False,False,False,False,False,False,False,True
1479424221.4586709,279021,1479424221,458508055,,0.005235987715423107,0.0,0.0,23.22222137451172,False,False,False,False,False,False,False,True
1479424221.4786458,279022,1479424221,478506891,,0.005235987715423107,0.0,0.0,23.22222137451172,False,False,False,False,False,False,False,True
1479424221.4988205,279023,1479424221,498641116,,0.003490658476948738,0.0,0.0,23.22222137451172,False,False,False,False,False,False,False,True
1479424221.5187683,279024,1479424221,518613234,,0.003490658476948738,0.0,0.1875,23.225000381469727,False,False,False,False,False,False,False,True
1479424221.5387428,279025,1479424221,538616194,,0.003490658476948738,0.0,0.1875,23.2277774810791,False,False,False,False,False,False,False,True
1479424221.5587924,279026,1479424221,558656575,,0.003490658476948738,0.0,0.1875,23.225000381469727,False,False,False,False,False,False,False,True
1479424221.5788395,279027,1479424221,578696179,,0.003490658476948738,0.0,0.125,23.225000381469727,False,False,False,False,False,False,False,True
1479424221.5989158,279028,1479424221,598731008,,0.003490658476948738,0.0,0.25,23.23055648803711,False,False,False,False,False,False,False,True
1479424221.6189003,279029,1479424221,618740063,,0.003490658476948738,0.0,0.125,23.23611068725586,False,False,False,False,False,False,False,True
1479424221.6389997,279030,1479424221,638806279,,0.003490658476948738,0.0,0.0625,23.23611068725586,False,False,False,False,False,False,False,True
1479424221.658976,279031,1479424221,658821495,,0.003490658476948738,0.0,0.125,23.233333587646484,False,False,False,False,False,False,False,True
1479424221.6790602,279032,1479424221,678873586,,0.003490658476948738,0.0,-0.125,23.233333587646484,False,False,False,False,False,False,False,True
1479424221.6990135,279033,1479424221,698885718,,0.001745329238474369,0.0,-0.25,23.233333587646484,False,False,False,False,False,False,False,True
1479424221.7190816,279034,1479424221,718910879,,0.001745329238474369,0.0,-0.5,23.233333587646484,False,False,False,False,False,False,False,True
1479424221.7390656,279035,1479424221,738929685,,-0.003490658476948738,0.0,-0.625,23.23055648803711,False,False,False,False,False,False,False,True
1479424221.7592099,279036,1479424221,759041626,,-0.013962633907794952,0.0,-0.8125,23.225000381469727,False,False,False,False,False,False,False,True
1479424221.779262,279037,1479424221,779011437,,-0.024434609338641167,0.0,-0.625,23.225000381469727,False,False,False,False,False,False,False,True
1479424221.7992387,279038,1479424221,799074412,,-0.03490658476948738,0.0,-0.6875,23.225000381469727,False,False,False,False,False,False,False,True
1479424221.8192332,279039,1479424221,819077286,,-0.04363323003053665,0.0,-0.625,23.22222137451172,False,False,False,False,False,False,False,True
1479424221.8393998,279040,1479424221,839142359,,-0.04886921867728233,0.0,-0.5625,23.21666717529297,False,False,False,False,False,False,False,True
1479424221.85934,279041,1479424221,859147078,,-0.05235987901687622,0.0,-0.375,23.21388816833496,False,False,False,False,False,False,False,True
1479424221.879359,279042,1479424221,879188826,,-0.05235987901687622,0.0,-0.1875,23.21666717529297,False,False,False,False,False,False,False,True
1479424221.8994374,279043,1479424221,899211513,,-0.05061454698443413,0.0,0.125,23.219444274902344,False,False,False,False,False,False,False,True
1479424221.9194386,279044,1479424221,919276526,,-0.04712389037013054,0.0,0.25,23.219444274902344,False,False,False,False,False,False,False,True
1479424221.939529,279045,1479424221,939337502,,-0.04014257341623306,0.0,0.4375,23.219444274902344,False,False,False,False,False,False,False,True
1479424221.9594696,279046,1479424221,959334630,,-0.02967059798538685,0.0,0.5,23.225000381469727,False,False,False,False,False,False,False,True
1479424221.9796045,279047,1479424221,979404160,,-0.019198622554540634,0.0,0.3125,23.23611068725586,False,False,False,False,False,False,False,True
1479424221.999709,279048,1479424221,999407804,,-0.008726646192371845,0.0,0.1875,23.233333587646484,False,False,False,False,False,False,False,True
1479424222.0195892,279049,1479424222,19437605,,0.0,0.0,0.375,23.225000381469727,False,False,False,False,False,False,False,True
1479424222.0396926,279050,1479424222,39515954,,0.001745329238474369,0.0,0.3125,23.225000381469727,False,False,False,False,False,False,False,True
1479424222.0597346,279051,1479424222,59518144,,0.005235987715423107,0.0,0.375,23.2277774810791,False,False,False,False,False,False,False,True
1479424222.079735,279052,1479424222,79528990,,0.006981316953897476,0.0,0.5,23.225000381469727,False,False,False,False,False,False,False,True
1479424222.0998068,279053,1479424222,99628402,,0.008726646192371845,0.0,0.5,23.219444274902344,False,False,False,False,False,False,False,True
1479424222.1197639,279054,1479424222,119619769,,0.010471975430846214,0.0,0.3125,23.21388816833496,False,False,False,False,False,False,False,True
1479424222.140043,279055,1479424222,139710387,,0.012217304669320583,0.0,0.3125,23.205554962158203,False,False,False,False,False,False,False,True
1479424222.1598413,279056,1479424222,159709086,,0.012217304669320583,0.0,0.1875,23.202777862548828,False,False,False,False,False,False,False,True
1479424222.179888,279057,1479424222,179696400,,0.010471975430846214,0.0,0.125,23.200000762939453,False,False,False,False,False,False,False,True
1479424222.2002168,279058,1479424222,199835999,,0.010471975430846214,0.0,0.125,23.197221755981445,False,False,False,False,False,False,False,True
1479424222.21994,279059,1479424222,219782507,,0.008726646192371845,0.0,0.0625,23.200000762939453,False,False,False,False,False,False,False,True
1479424222.2399583,279060,1479424222,239808437,,0.008726646192371845,0.0,0.1875,23.202777862548828,False,False,False,False,False,False,False,True
1479424222.2599826,279061,1479424222,259821504,,0.010471975430846214,0.0,0.25,23.202777862548828,False,False,False,False,False,False,False,True
1479424222.2800806,279062,1479424222,279873141,,0.010471975430846214,0.0,0.1875,23.202777862548828,False,False,False,False,False,False,False,True
1479424222.3001914,279063,1479424222,299955053,,0.010471975430846214,0.0,0.0625,23.205554962158203,False,False,False,False,False,False,False,True
1479424222.3201106,279064,1479424222,319960829,,0.008726646192371845,0.0,0.0,23.211111068725586,False,False,False,False,False,False,False,True
1479424222.3403091,279065,1479424222,339978088,,0.008726646192371845,0.0,-0.1875,23.21666717529297,False,False,False,False,False,False,False,True
1479424222.3601336,279066,1479424222,359991396,,0.006981316953897476,0.0,-0.0625,23.219444274902344,False,False,False,False,False,False,False,True
1479424222.3802316,279067,1479424222,380055068,,0.005235987715423107,0.0,0.0,23.219444274902344,False,False,False,False,False,False,False,True
1479424222.400278,279068,1479424222,400073269,,0.005235987715423107,0.0,0.0625,23.22222137451172,False,False,False,False,False,False,False,True
1479424222.4202323,279069,1479424222,420092635,,0.005235987715423107,0.0,0.125,23.225000381469727,False,False,False,False,False,False,False,True
1479424222.4404583,279070,1479424222,440214248,,0.005235987715423107,0.0,0.125,23.225000381469727,False,False,False,False,False,False,False,True
1479424222.4603229,279071,1479424222,460158935,,0.005235987715423107,0.0,0.0,23.225000381469727,False,False,False,False,False,False,False,True
1479424222.4803772,279072,1479424222,480233561,,0.005235987715423107,0.0,-0.125,23.2277774810791,False,False,False,False,False,False,False,True
1479424222.5004551,279073,1479424222,500283269,,0.005235987715423107,0.0,0.0625,23.23055648803711,False,False,False,False,False,False,False,True
1479424222.520395,279074,1479424222,520257905,,0.005235987715423107,0.0,0.0625,23.23055648803711,False,False,False,False,False,False,False,True
1479424222.5404778,279075,1479424222,540281055,,0.005235987715423107,0.0,0.0,23.2277774810791,False,False,False,False,False,False,False,True
1479424222.5605288,279076,1479424222,560366799,,0.005235987715423107,0.0,0.0625,23.2277774810791,False,False,False,False,False,False,False,True
1479424222.5806181,279077,1479424222,580402766,,0.005235987715423107,0.0,0.0,23.23055648803711,False,False,False,False,False,False,False,True
1479424222.6006882,279078,1479424222,600445133,,0.005235987715423107,0.0,-0.0625,23.23611068725586,False,False,False,False,False,False,False,True
1479424222.620659,279079,1479424222,620442734,,0.005235987715423107,0.0,-0.0625,23.238889694213867,False,False,False,False,False,False,False,True
1479424222.6406837,279080,1479424222,640492641,,0.003490658476948738,0.0,-0.1875,23.23611068725586,False,False,False,False,False,False,False,True
1479424222.6606853,279081,1479424222,660505018,,0.003490658476948738,0.0,-0.25,23.238889694213867,False,False,False,False,False,False,False,True
1479424222.680849,279082,1479424222,680652163,,0.003490658476948738,0.0,-0.3125,23.244443893432617,False,False,False,False,False,False,False,True
1479424222.700772,279083,1479424222,700614160,,0.001745329238474369,0.0,-0.375,23.25,False,False,False,False,False,False,False,True
1479424222.720809,279084,1479424222,720621547,,0.001745329238474369,0.0,-0.3125,23.252777099609375,False,False,False,False,False,False,False,True
1479424222.7409053,279085,1479424222,740693743,,0.001745329238474369,0.0,-0.3125,23.255556106567383,False,False,False,False,False,False,False,True
1479424222.7608812,279086,1479424222,760695973,,0.001745329238474369,0.0,-0.3125,23.258333206176758,False,False,False,False,False,False,False,True
1479424222.7809305,279087,1479424222,780784490,,0.001745329238474369,0.0,-0.25,23.26944351196289,False,False,False,False,False,False,False,True
1479424222.8008664,279088,1479424222,800785269,,0.001745329238474369,0.0,-0.3125,23.26944351196289,False,False,False,False,False,False,False,True
1479424222.8208675,279089,1479424222,820779190,,0.001745329238474369,0.0,-0.3125,23.26944351196289,False,False,False,False,False,False,False,True
1479424222.8410075,279090,1479424222,840923467,,0.001745329238474369,0.0,-0.4375,23.280555725097656,False,False,False,False,False,False,False,True
1479424222.8609684,279091,1479424222,860886369,,0.001745329238474369,0.0,-0.1875,23.29166603088379,False,False,False,False,False,False,False,True
1479424222.8809793,279092,1479424222,880886519,,0.001745329238474369,0.0,-0.3125,23.28611183166504,False,False,False,False,False,False,False,True
1479424222.901051,279093,1479424222,900946124,,0.0,0.0,-0.4375,23.274999618530273,False,False,False,False,False,False,False,True
1479424222.9212673,279094,1479424222,921118320,,-0.003490658476948738,0.0,-0.4375,23.26944351196289,False,False,False,False,False,False,False,True
1479424222.9412143,279095,1479424222,940988862,,-0.005235987715423107,0.0,-0.5625,23.26944351196289,False,False,False,False,False,False,False,True
1479424222.9611843,279096,1479424222,961035286,,-0.010471975430846214,0.0,-0.625,23.266666412353516,False,False,False,False,False,False,False,True
1479424222.9812655,279097,1479424222,981059747,,-0.013962633907794952,0.0,-0.625,23.25,False,False,False,False,False,False,False,True
1479424223.0013576,279098,1479424223,1203078,,-0.02094395086169243,0.0,-0.8125,23.23611068725586,False,False,False,False,False,False,False,True
1479424223.0213153,279099,1479424223,21135786,,-0.027925267815589905,0.0,-1.0625,23.23055648803711,False,False,False,False,False,False,False,True
1479424223.0413013,279100,1479424223,41137561,,-0.036651913076639175,0.0,-1.0625,23.2277774810791,False,False,False,False,False,False,False,True
1479424223.0613813,279101,1479424223,61202647,,-0.04712389037013054,0.0,-0.9375,23.23055648803711,False,False,False,False,False,False,False,True
